nombre,Latitud,Longitud,coordenadas
TUXAQUILJA,16.75277778,-92.26805556,"16.75277778,-92.26805556"
HUISUCHI GRANDE,27.12437361,-107.6846275,"27.12437361,-107.6846275"
BAHUICHIVO,27.40972222,-108.0669444,"27.40972222,-108.0669444"
EL CARRIZAL (URIQUE),27.06631778,-107.8707394,"27.06631778,-107.8707394"
LA MAGDALENA TLATLAUQUITEPEC,18.76055556,-98.10083333,"18.76055556,-98.10083333"
SANTA LUCIA (TENAMPULCO),20.19361111,-97.34916667,"20.19361111,-97.34916667"
TEOPANTLAN,18.71527778,-98.26138889,"18.71527778,-98.26138889"
SAN BARTOLO TEONTEPEC,18.49027778,-97.52388889,"18.49027778,-97.52388889"
LA VENTANA,23.00611111,-100.2652778,"23.00611111,-100.2652778"
CHUNUN TZEN UNO,21.48527778,-98.97416667,"21.48527778,-98.97416667"
SAN JOSE (SAN JOSE DE LAS FLORES),21.54972222,-98.98666667,"21.54972222,-98.98666667"
TIXPEHUAL,20.97777778,-89.44166667,"20.97777778,-89.44166667"
EL EDEN (YAXIC),21.04416667,-87.67861111,"21.04416667,-87.67861111"
TEPATLAXCO DE HIDALGO,19.08083333,-97.97083333,"19.08083333,-97.97083333"
TAN TOCOY UNO,21.53083333,-98.99138889,"21.53083333,-98.99138889"
LAGUNA VERDE (LAGUNILLAS),21.48638889,-99.55861111,"21.48638889,-99.55861111"
PINIHUAN (RIO PINIHUAN),21.71194444,-99.57027778,"21.71194444,-99.57027778"
SAN RAFAEL (LAGUNILLAS),21.59,-99.70638889,"21.59,-99.70638889"
CERRITO DE LA CRUZ,21.89138889,-99.71361111,"21.89138889,-99.71361111"
VICENTE GUERRERO (RAYON),21.858653,-99.487771,"21.858653,-99.487771"
BAGRES DE ARRIBA (LA ESTANCIA),21.70555556,-100.14,"21.70555556,-100.14"
PASO DE SAN ANTONIO,22.0175,-100.3752778,"22.0175,-100.3752778"
PLAZUELA,21.79805556,-99.93222222,"21.79805556,-99.93222222"
PROGRESO (RIOVERDE),22.22833333,-100.1280556,"22.22833333,-100.1280556"
SAN DIEGO (RIOVERDE),21.91666667,-100.1016667,"21.91666667,-100.1016667"
SAN FRANCISCO (RIOVERDE),22.07472222,-99.86083333,"22.07472222,-99.86083333"
EL PITAHAYO (SANTA CRUZ DEL PITAYO),21.61777778,-99.83722222,"21.61777778,-99.83722222"
CERRITOS DE ZAVALA,22.53916667,-100.9772222,"22.53916667,-100.9772222"
SAMARIA,21.262502,-87.749352,"21.262502,-87.749352"
TIXCANCAL,21.03444444,-87.85138889,"21.03444444,-87.85138889"
DZI,20.07083333,-89.05055556,"20.07083333,-89.05055556"
CATMIS,19.95694444,-88.94944444,"19.95694444,-88.94944444"
CORRAL,19.81166667,-89.00444444,"19.81166667,-89.00444444"
KANXOC,20.61722222,-88.09944444,"20.61722222,-88.09944444"
XUILUB,20.4175,-88.02888889,"20.4175,-88.02888889"
YALCOBA,20.79027778,-88.03861111,"20.79027778,-88.03861111"
XOCCHEL,20.83333333,-89.18333333,"20.83333333,-89.18333333"
TIHOLOP,20.33138889,-88.68888889,"20.33138889,-88.68888889"
YOKDZONOT,20.71083333,-88.73138889,"20.71083333,-88.73138889"
KANCABDZONOT,20.50916667,-88.71055556,"20.50916667,-88.71055556"
CHURO,27.36388889,-107.9019444,"27.36388889,-107.9019444"
VENUSTIANO CARRANZA (SAN LUIS DE BABAROCOS),27.88351722,-108.8085639,"27.88351722,-108.8085639"
EL MANZANO,27.745,-108.1591667,"27.745,-108.1591667"
EL JARALITO,22.03916667,-100.8233333,"22.03916667,-100.8233333"
LA MANTEQUILLA,22.42888889,-100.8808333,"22.42888889,-100.8808333"
LA MELADA,22.47611111,-100.9691667,"22.47611111,-100.9691667"
PEÑASCO,22.32861111,-100.9475,"22.32861111,-100.9475"
EL HUAYAL,21.48166667,-98.59888889,"21.48166667,-98.59888889"
MANCHOC,21.34388889,-98.69277778,"21.34388889,-98.69277778"
OCUILTZAPOYO,21.32444444,-98.72861111,"21.32444444,-98.72861111"
EL POTRERO (SAN MARTIN CHALCHICUAUTLA),21.24194444,-98.63138889,"21.24194444,-98.63138889"
CAÑADA DE YAÑEZ,21.81444444,-100.6538889,"21.81444444,-100.6538889"
CERRITOS DE BERNAL,23.35666667,-101.5005556,"23.35666667,-101.5005556"
ILLESCAS,23.23694444,-102.1461111,"23.23694444,-102.1461111"
SAN ANTONIO DEL MEZQUITE,23.16222222,-101.8902778,"23.16222222,-101.8902778"
SAN JUAN DEL SALADO,23.31388889,-101.9566667,"23.31388889,-101.9566667"
LA VICTORIA (SANTO DOMINGO),23.63166667,-101.3933333,"23.63166667,-101.3933333"
ZANCARRON,23.37305556,-102.2194444,"23.37305556,-102.2194444"
SAN FRANCISCO CUAYALAB,21.73055556,-98.71777778,"21.73055556,-98.71777778"
FLORES MAGON,21.77416667,-98.56861111,"21.77416667,-98.56861111"
FRACCION GENERAL ENRIQUE ESTRADA (LA CONCHA),22.23972222,-100.8894444,"22.23972222,-100.8894444"
LA PALMA (VILLA DE LA PALMA),21.785887,-99.468138,"21.785887,-99.468138"
SANTA MARIA TAMPALATIN,21.8225,-99.35694444,"21.8225,-99.35694444"
VEINTE DE NOVIEMBRE (TAMASOPO),21.75472222,-99.27944444,"21.75472222,-99.27944444"
TIXCACALTUYUB,20.49277778,-88.91666667,"20.49277778,-88.91666667"
LOS LLAMAS (SAN ISIDRO),21.50277778,-103.0905556,"21.50277778,-103.0905556"
ROCOROYBO,27.69,-108.2472222,"27.69,-108.2472222"
EL REBAJE,28.03888889,-108.9422222,"28.03888889,-108.9422222"
VENUSTIANO CARRANZA (ACUÑA),29.19882222,-102.4073625,"29.19882222,-102.4073625"
RIO BRAVO,28.30972222,-100.9183333,"28.30972222,-100.9183333"
JAME,25.36722222,-100.6208333,"25.36722222,-100.6208333"
LOS LLANOS,25.30583333,-100.8,"25.30583333,-100.8"
PIEDRA BLANCA,25.46222222,-100.6069444,"25.46222222,-100.6069444"
SAN FRANCISCO (TAMAZUNCHALE),21.279491,-98.890736,"21.279491,-98.890736"
LAS VIBORAS (TAMPAMOLON CORONA),21.46444444,-98.71138889,"21.46444444,-98.71138889"
ESTACION TAMUIN,22.0775,-98.81111111,"22.0775,-98.81111111"
AGUALOJA,21.68888889,-98.84861111,"21.68888889,-98.84861111"
EL JOMTE,21.65805556,-98.91166667,"21.65805556,-98.91166667"
TOMO,24.96916667,-107.1761111,"24.96916667,-107.1761111"
SAN JOSE DE LOS LLANOS (LOS LLANOS),26.59722222,-108.09,"26.59722222,-108.09"
RINCON DE ALISO,26.15722222,-108.7619444,"26.15722222,-108.7619444"
EL ROBLE,23.24555556,-106.2058333,"23.24555556,-106.2058333"
PALMA CUATA,21.48444444,-103.0180556,"21.48444444,-103.0180556"
SAN JOSE DE LAS DELICIAS,25.80527778,-107.7838889,"25.80527778,-107.7838889"
MATIAS GARCIA (LA HACIENDA),23.40472222,-99.43555556,"23.40472222,-99.43555556"
COL. TAMAULIPAS,22.7425,-98.97222222,"22.7425,-98.97222222"
LA REFORMA (MATAMOROS),25.87972222,-97.50416667,"25.87972222,-97.50416667"
LA NUEVA UNION (SAN CARLOS),24.41638889,-99.15361111,"24.41638889,-99.15361111"
EL ESMERIL,23.51,-97.88055556,"23.51,-97.88055556"
LAZARO CARDENAS (VALLE HERMOSO),25.67361111,-97.81444444,"25.67361111,-97.81444444"
LA MOJARRA,18.61667,-95.79972,"18.61667,-95.79972"
PRIMO VERDAD (SAN MIGUEL),20.82166667,-98.21555556,"20.82166667,-98.21555556"
SAN FERNANDO COAPECHAPA,20.3675,-97.62055556,"20.3675,-97.62055556"
CHICUALOQUE,20.38277778,-97.66194444,"20.38277778,-97.66194444"
TLANEMPA COMUN,20.91555556,-97.95083333,"20.91555556,-97.95083333"
COACOACO,20.8275,-98.43694444,"20.8275,-98.43694444"
COLATLAN,20.8175,-98.10027778,"20.8175,-98.10027778"
TENENEXPAN,19.14111111,-96.39388889,"19.14111111,-96.39388889"
PUEBLO VIEJO (MISANTLA),19.81611111,-96.87361111,"19.81611111,-96.87361111"
MOZUTLA,20.58611111,-97.37583333,"20.58611111,-97.37583333"
LAS AMERICAS GRANDES,20.81833333,-97.61972222,"20.81833333,-97.61972222"
EL PAPATLAR,20.60083333,-98.2825,"20.60083333,-98.2825"
PRAXEDIS GUERRERO (KILOMETRO 18),20.8,-97.3125,"20.8,-97.3125"
LOS CAMPOS,21.49472222,-103.6388889,"21.49472222,-103.6388889"
BOQUILLA DE ABAJO,23.555,-102.8641667,"23.555,-102.8641667"
PAREDONES (TANTOYUCA),21.52944,-98.17472,"21.52944,-98.17472"
GENERAL PRIM (SAN FRANCISCO),20.48305556,-98.3025,"20.48305556,-98.3025"
ATLAHUILCO,18.69944444,-97.08833333,"18.69944444,-97.08833333"
EL REMOLINO (LAS CHOAPAS),17.45694444,-93.79805556,"17.45694444,-93.79805556"
COL. RODOLFO SANCHEZ TABOADA (PRIMERA SECC.),17.64027778,-94.51111111,"17.64027778,-94.51111111"
OCOTITLAN,19.04333333,-96.90972222,"19.04333333,-96.90972222"
FERNANDO LOPEZ ARIAS (MINATITLAN),17.54805556,-94.29138889,"17.54805556,-94.29138889"
PASO GAVILAN,18.98138889,-96.62444444,"18.98138889,-96.62444444"
ARROYO DEHESA,17.7975,-95.69888889,"17.7975,-95.69888889"
SAYULA DE ALEMAN,17.88111111,-94.96055556,"17.88111111,-94.96055556"
TEHUIPANGO,18.51777778,-97.05611111,"18.51777778,-97.05611111"
HUIXCOLOTLA,18.66555556,-96.4975,"18.66555556,-96.4975"
LAZARO CARDENAS (TIERRA BLANCA),18.70583333,-96.51333333,"18.70583333,-96.51333333"
RIO UXPANAPA (POBLADO CATORCE),17.16583333,-94.14694444,"17.16583333,-94.14694444"
LA UNION PROGRESO TATAHUICAPA,17.64638889,-95.57944444,"17.64638889,-95.57944444"
DZILAM GONZALEZ,21.28,-88.92916667,"21.28,-88.92916667"
KAUA,20.61916667,-88.41555556,"20.61916667,-88.41555556"
DZONOT CARRETERO,21.40194444,-87.8775,"21.40194444,-87.8775"
LUIS MOYA,23.58111111,-103.4416667,"23.58111111,-103.4416667"
LA COLORADA (ESTACION LA COLORADA),23.80944444,-102.4719444,"23.80944444,-102.4719444"
TELCHAC PUERTO,21.34055556,-89.26305556,"21.34055556,-89.26305556"
MORELOS (SAN RAFAEL),24.43555556,-101.2002778,"24.43555556,-101.2002778"
PROGRESO (AGUA DULCE),24.46166667,-101.0566667,"24.46166667,-101.0566667"
EL SALERO,24.59777778,-101.3427778,"24.59777778,-101.3427778"
SAN PEDRO PIEDRA GORDA,22.44861111,-102.35,"22.44861111,-102.35"
GUALTERIO,23.58305556,-103.8586111,"23.58305556,-103.8586111"
JOSE MARIA MORELOS (SAN JOSE DE GRACIA),23.39333333,-103.8994444,"23.39333333,-103.8994444"
CHICHIMEQUILLAS,23.24027778,-102.5788889,"23.24027778,-102.5788889"
RAFAEL YAÑEZ SOSA (EL MEZQUITE),23.32833333,-102.6102778,"23.32833333,-102.6102778"
COLONIA MONTEMARIANA (COLONIA MARIANA),23.32638889,-103.1122222,"23.32638889,-103.1122222"
EL PARDILLO TERCERO,23.14166667,-102.7158333,"23.14166667,-102.7158333"
COLONIA PLENITUD,23.2325,-103.075,"23.2325,-103.075"
SAN BUENAVENTURA TECALTZINGO,19.24777778,-98.46055556,"19.24777778,-98.46055556"
SAN FRANCISCO TLALOC,19.36972222,-98.47722222,"19.36972222,-98.47722222"
SAN NICOLAS BUENOS AIRES,19.16416667,-97.5475,"19.16416667,-97.5475"
EMILIO PORTES GIL (SAN NICOLAS BUENOS AIRES),19.30833333,-97.51,"19.30833333,-97.51"
SANTIAGO XALITZINTLA,19.08333333,-98.51611111,"19.08333333,-98.51611111"
SAN MIGUEL TULAPA,18.14694444,-98.12277778,"18.14694444,-98.12277778"
CHOLULA DE RIVADAVIA,19.09319056,-98.35441472,"19.09319056,-98.35441472"
COLONIA PURISIMA DEL MAGUEY,23.03222222,-102.8938889,"23.03222222,-102.8938889"
SAN PEDRO YELOIXTLAHUACA,18.11694444,-98.07722222,"18.11694444,-98.07722222"
SAN LUIS TEMALACAYUCA,18.60138889,-97.55944444,"18.60138889,-97.55944444"
ZARAGOZA (ZARAGOZA),19.77277778,-97.55666667,"19.77277778,-97.55666667"
SANTIAGO ZAUTLA,19.71599389,-97.67234222,"19.71599389,-97.67234222"
JALCOMULCO,19.78361111,-97.68222222,"19.78361111,-97.68222222"
SAN MIGUEL TENEXTATILOYAN,19.71111111,-97.59472222,"19.71111111,-97.59472222"
CERRO VERDE,20.33916667,-97.75111111,"20.33916667,-97.75111111"
LA UNION (ZIHUATEUTLA),20.26191389,-97.87169306,"20.26191389,-97.87169306"
ZONGOZOTLA,19.97972222,-97.72666667,"19.97972222,-97.72666667"
SAN CRISTOBAL (FRESNILLO),23.17666667,-103.0555556,"23.17666667,-103.0555556"
NUEVA FRANCIA,15.37055556,-92.58888889,"15.37055556,-92.58888889"
CINTALAPA (ESCUINTLA),15.3375,-92.61527778,"15.3375,-92.61527778"
LOS ANGELES,15.77388889,-91.97944444,"15.77388889,-91.97944444"
SABINALITO,15.70083333,-91.98555556,"15.70083333,-91.98555556"
PASO HONDO,15.68194444,-92.01972222,"15.68194444,-92.01972222"
SAN CARALAMPIO (FRONTERA COMALAPA),15.82833333,-92.03416667,"15.82833333,-92.03416667"
SINALOA,15.89138889,-92.12888889,"15.89138889,-92.12888889"
NUEVO MAZAPA,15.77583333,-92.14055556,"15.77583333,-92.14055556"
GUADALUPE GRIJALVA,15.69777778,-92.16361111,"15.69777778,-92.16361111"
NUEVA LIBERTAD (FRONTERA COMALAPA),15.75444444,-92.20222222,"15.75444444,-92.20222222"
MONTERDE (MONTERDE VIEJO),27.57075056,-108.0804839,"27.57075056,-108.0804839"
LIC. ADOLFO LOPEZ MATEOS,28.47777778,-107.3316667,"28.47777778,-107.3316667"
AHUCHIQUE,28.08527778,-107.7144444,"28.08527778,-107.7144444"
COJAHUACHI,28.04222222,-107.5238889,"28.04222222,-107.5238889"
ACATEPEC (SAN ANTONIO),18.3725,-97.03777778,"18.3725,-97.03777778"
TEPEXILOTLA,18.46522139,-96.90684111,"18.46522139,-96.90684111"
CERRITO DE ROJAS,22.44527778,-101.1911111,"22.44527778,-101.1911111"
PASO BONITO,22.32527778,-101.2616667,"22.32527778,-101.2616667"
CONEJILLO,22.505,-101.7911111,"22.505,-101.7911111"
TENEXCALCO (LA CEIBA),21.38833333,-98.90305556,"21.38833333,-98.90305556"
SANTIAGO DE LOS CABALLEROS (SANTIAGO),25.5575,-107.3763889,"25.5575,-107.3763889"
CORTIJOS DE GUATENIPA (LOS CORTIJOS),25.29861111,-107.2227778,"25.29861111,-107.2227778"
HUIXIOPA,25.75666667,-107.1886111,"25.75666667,-107.1886111"
POTRERILLOS (BADIRAGUATO),25.94316944,-107.3396458,"25.94316944,-107.3396458"
EL POTRERO DE BEJARANO,26.04277778,-107.3397222,"26.04277778,-107.3397222"
SAN ISIDRO DE CABRALES,23.06666667,-103.1655556,"23.06666667,-103.1655556"
COPALA,23.39611111,-105.9338889,"23.39611111,-105.9338889"
LAS IGUANAS,23.50472222,-106.1763889,"23.50472222,-106.1763889"
EL PUEBLITO (CONCORDIA),23.71805556,-106.0038889,"23.71805556,-106.0038889"
SANTA LUCIA (CONCORDIA),23.4375,-105.8527778,"23.4375,-105.8527778"
GUADALUPE DE LOS REYES,24.27855833,-106.5070647,"24.27855833,-106.5070647"
PUEBLO DE ALAYA,24.52083333,-106.8808333,"24.52083333,-106.8808333"
LAGUNA DE BELTRANES,22.94777778,-105.9094444,"22.94777778,-105.9094444"
EL DIAMANTE,18.61083333,-95.17194444,"18.61083333,-95.17194444"
AGUA NACIDA,20.91416667,-97.70666667,"20.91416667,-97.70666667"
LAS CAÑAS DE ABAJO,20.81861111,-97.57555556,"20.81861111,-97.57555556"
ESTERO DEL IDOLO,20.89111111,-97.65972222,"20.89111111,-97.65972222"
TEMAPACHE,21.06694444,-97.63944444,"21.06694444,-97.63944444"
LOMAS DE VINAZCO,20.86333333,-97.8825,"20.86333333,-97.8825"
SAN MIGUEL (TEMAPACHE),20.94888889,-97.54611111,"20.94888889,-97.54611111"
VILLA HERMOSA (TEMAPACHE),20.95722222,-97.58472222,"20.95722222,-97.58472222"
VICENTE GUERRERO (TEMAPACHE),21.06027778,-97.86583333,"21.06027778,-97.86583333"
COROZAL,21.54805556,-98.55472222,"21.54805556,-98.55472222"
MONTE REAL,19.72888889,-96.925,"19.72888889,-96.925"
FRIJOLILLO (TUXPAN),20.91638889,-97.49,"20.91638889,-97.49"
EL JOBO,20.78611111,-97.42416667,"20.78611111,-97.42416667"
ALTO DE SAN LORENZO,21.07805556,-97.44888889,"21.07805556,-97.44888889"
URSULO GALVAN II,19.40694444,-96.36305556,"19.40694444,-96.36305556"
EL LAUREL,20.1175,-96.68194444,"20.1175,-96.68194444"
ANAHUAC (SAN EUSTAQUIO),24.52916667,-101.3361111,"24.52916667,-101.3361111"
SAN JOSE DE LOURDES,23.27777778,-103.0088889,"23.27777778,-103.0088889"
CRISTOBAL HIDALGO,19.85222222,-96.7575,"19.85222222,-96.7575"
LEONA VICARIO,19.85416667,-96.80083333,"19.85416667,-96.80083333"
ATIXTACA,20.49694444,-98.39388889,"20.49694444,-98.39388889"
EL PALENQUE PALOTAL,18.96777778,-96.97916667,"18.96777778,-96.97916667"
SANTA ROSA (JUAN RODRIGUEZ CLARA),17.92972222,-95.44083333,"17.92972222,-95.44083333"
SEIS DE ENERO (FRESNILLO),23.36333333,-103.0727778,"23.36333333,-103.0727778"
URITE,23.32194444,-103.2475,"23.32194444,-103.2475"
PERALES,22.54388889,-102.5536111,"22.54388889,-102.5536111"
EL TEPETATE (GENARO CODINA),22.59083333,-102.6511111,"22.59083333,-102.6511111"
GENERAL ENRIQUE ESTRADA,22.99444444,-102.7413889,"22.99444444,-102.7413889"
APASEO,24.26444444,-103.0388889,"24.26444444,-103.0388889"
FRANCISCO I. MADERO (COLONIA MADERO),23.93083333,-102.9536111,"23.93083333,-102.9536111"
SAN RAFAEL DE ARRIBA,25.88,-103.1333333,"25.88,-103.1333333"
TACUBAYA,25.68361111,-103.0686111,"25.68361111,-103.0686111"
BOCA DE SAN MIGUEL,18.45277778,-95.51972222,"18.45277778,-95.51972222"
EL SAUCE (CERRO GRANDE),18.7125,-96.0675,"18.7125,-96.0675"
PASO CARRETAS,18.68444444,-96.13777778,"18.68444444,-96.13777778"
CUYUCUENDA,18.78166667,-96.27527778,"18.78166667,-96.27527778"
TLAQUILPA,18.61222222,-97.11888889,"18.61222222,-97.11888889"
TECAMA,19.005,-96.985,"19.005,-96.985"
MATA OBSCURA,19.21805556,-96.855,"19.21805556,-96.855"
TLAPALA,19.27166667,-96.91027778,"19.27166667,-96.91027778"
MATLALUCA,19.05555556,-96.77305556,"19.05555556,-96.77305556"
CORAZON DE JESUS (PIÑA),19.06638889,-96.82361111,"19.06638889,-96.82361111"
CHICOMAPA,18.55417,-96.84361,"18.55417,-96.84361"
GENERAL MANUEL AVILA CAMACHO (MESILLAS),24.25805556,-102.7736111,"24.25805556,-102.7736111"
COLONIA ANTONIO R. VELA (SAN LORENZO),22.095,-103.0336111,"22.095,-103.0336111"
GENERAL PANFILO NATERA,22.665,-102.1097222,"22.665,-102.1097222"
EL SAUCITO (EL HORNO),22.73111111,-102.0952778,"22.73111111,-102.0952778"
CASA BLANCA,22.88527778,-102.3058333,"22.88527778,-102.3058333"
LA ZACATECANA,22.73138889,-102.4738889,"22.73138889,-102.4738889"
SAN JOSE DE LA PALMA,21.75055556,-102.8183333,"21.75055556,-102.8183333"
COLONIA ARECHIGA,21.62583333,-103.1497222,"21.62583333,-103.1497222"
SANTA JUANA (IGNACIO ZARAGOZA),21.66722222,-102.9113889,"21.66722222,-102.9113889"
CIENEGUITAS DE FERNANDEZ,22.79055556,-103.1694444,"22.79055556,-103.1694444"
ERMITA DE GUADALUPE,22.58777778,-103.0327778,"22.58777778,-103.0327778"
ERMITA DE LOS CORREA,22.90416667,-103.0175,"22.90416667,-103.0175"
LOS HARO,22.76777778,-102.9627778,"22.76777778,-102.9627778"
LO DE LUNA,22.695,-102.8333333,"22.695,-102.8333333"
LA GAVIA (JEREZ),22.56666667,-102.9611111,"22.56666667,-102.9611111"
SAUCES DE ABAJO (SAN JOSE DE LOS SAUCES),23.28805556,-103.8127778,"23.28805556,-103.8127778"
OJITOS,24.30638889,-103.3433333,"24.30638889,-103.3433333"
CONTITLAN,21.34777778,-103.135,"21.34777778,-103.135"
LA CONCEPCION (LORETO),22.23583333,-101.8544444,"22.23583333,-101.8544444"
TIERRA BLANCA (LORETO),22.3475,-102.0644444,"22.3475,-102.0644444"
LOS GRIEGOS (GRIEGOS),22.44888889,-102.2186111,"22.44888889,-102.2186111"
CEDROS,24.67805556,-101.7725,"24.67805556,-101.7725"
LA PARDITA,24.29917972,-101.4369594,"24.29917972,-101.4369594"
LA PRESITA,24.34694444,-101.7216667,"24.34694444,-101.7216667"
SAN ELIAS DE LA CARDONA,24.01666667,-101.6144444,"24.01666667,-101.6144444"
SAN RAFAEL (JOSE MARIA MORELOS),24.59166667,-102.1102778,"24.59166667,-102.1102778"
TAMPICO (NUEVO TAMPICO),24.98611111,-102.6158333,"24.98611111,-102.6158333"
LA TASAJERA,24.495,-102.1966667,"24.495,-102.1966667"
SAN JERONIMO (LA NORIA),24.985,-102.2172222,"24.985,-102.2172222"
MIGUEL AUZA,24.29388889,-103.4497222,"24.29388889,-103.4497222"
COLONIA VEINTE DE NOVIEMBRE (SANTA ANA),24.23777778,-103.5561111,"24.23777778,-103.5561111"
MONTE ESCOBEDO,22.30361111,-103.5602778,"22.30361111,-103.5602778"
LAGUNA GRANDE,22.44194444,-103.5027778,"22.44194444,-103.5027778"
MARIA DE LA TORRE,22.25694444,-103.3522222,"22.25694444,-103.3522222"
CUXPALA,21.28888889,-103.2263889,"21.28888889,-103.2263889"
PALMAREJO,21.10471417,-103.1282911,"21.10471417,-103.1282911"
DANIEL CAMARENA (LAS ANIMAS),21.34527778,-102.8944444,"21.34527778,-102.8944444"
LA ESTANCIA (NOCHISTLAN DE MEJIA),21.42944444,-102.7397222,"21.42944444,-102.7397222"
TLACHICHILA,21.55694444,-102.7858333,"21.55694444,-102.7858333"
LA CONCEPCION (OJOCALIENTE),22.51666667,-102.2661111,"22.51666667,-102.2661111"
LOS CARDOS (TLALTENANGO DE SANCHEZ ROMAN),21.82027778,-103.1094444,"21.82027778,-103.1094444"
JOAQUIN MIGUEL GUTIERREZ (QUESPALA),15.81527778,-91.94777778,"15.81527778,-91.94777778"
DR. RODULFO FIGUEROA (TIERRA BLANCA),15.85083333,-92.06222222,"15.85083333,-92.06222222"
LA NUEVA UNION (BENEMERITO DE LAS AMERICAS),16.08694444,-90.77333333,"16.08694444,-90.77333333"
FLOR DE CAFE,16.08083333,-91.18277778,"16.08083333,-91.18277778"
AMATITLAN,16.23611111,-91.28944444,"16.23611111,-91.28944444"
MARAVILLA TENEJAPA,16.13916667,-91.29555556,"16.13916667,-91.29555556"
PICO DE ORO,16.33222222,-90.76527778,"16.33222222,-90.76527778"
SAUZ DE ABAJO,24.70527778,-104.47,"24.70527778,-104.47"
COLONIA GUADALUPE EL ASTILLERO,20.32916667,-99.55222222,"20.32916667,-99.55222222"
EL CARMEN (HUICHAPAN),20.30555556,-99.82694444,"20.30555556,-99.82694444"
JONACAPA,20.43972222,-99.53305556,"20.43972222,-99.53305556"
EL NARANJO (LA MISION),21.02222222,-99.00361111,"21.02222222,-99.00361111"
BENITO JUAREZ (MIXQUIAHUALA DE JUAREZ),20.29416667,-99.14638889,"20.29416667,-99.14638889"
COLONIA MORELOS (EL NUEVE),20.225,-99.14111111,"20.225,-99.14111111"
TEPEITIC,20.24138889,-99.29083333,"20.24138889,-99.29083333"
CUXHUACAN,20.97166667,-98.81805556,"20.97166667,-98.81805556"
HOLANDA,18.91861111,-102.3775,"18.91861111,-102.3775"
SAN JUAN BAUTISTA TLACOATZINTEPEC,17.85972222,-96.58611111,"17.85972222,-96.58611111"
SANTA LUCIA MIAHUATLAN,16.18527778,-96.61805556,"16.18527778,-96.61805556"
SANTA LUCIA MONTEVERDE,16.97027778,-97.66583333,"16.97027778,-97.66583333"
TEPEACA,18.96805556,-97.9025,"18.96805556,-97.9025"
TEPETZINTLA,19.97,-97.84027778,"19.97,-97.84027778"
OMITLAN,19.9025,-97.85333333,"19.9025,-97.85333333"
XOCHITLAXCO (SAN BALTAZAR),19.94138889,-97.86361111,"19.94138889,-97.86361111"
ALMOLONGA (TODOS SANTOS),18.47416667,-97.96555556,"18.47416667,-97.96555556"
SAN FELIPE OTLALTEPEC,18.40194444,-97.90861111,"18.40194444,-97.90861111"
TEPEYAHUALCO,19.49333333,-97.49222222,"19.49333333,-97.49222222"
SAN JOSE ALCHICHICA,19.43583333,-97.38888889,"19.43583333,-97.38888889"
LA CRUZ,23.76416667,-100.6872222,"23.76416667,-100.6872222"
EL CUAREJO,23.83111111,-100.5758333,"23.83111111,-100.5758333"
SAN ISIDRO (CEDRAL),23.86638889,-100.7769444,"23.86638889,-100.7769444"
SANTA RITA DEL SOTOL,24.00972222,-100.6319444,"24.00972222,-100.6319444"
BOSQUE Y CALDERA,22.48861111,-100.1952778,"22.48861111,-100.1952778"
PALO ALTO DE LA PURISIMA CONCEPCION,21.65694444,-99.87555556,"21.65694444,-99.87555556"
CIENEGA DE LOS LARA,25.24472222,-107.4391667,"25.24472222,-107.4391667"
IPUCHA,24.33472222,-106.7644444,"24.33472222,-106.7644444"
SAN ISIDRO (HIDALGO),24.23916667,-99.59416667,"24.23916667,-99.59416667"
MAGDALENO AGUILAR (SANTIAGUILLO),23.45222222,-99.55833333,"23.45222222,-99.55833333"
PADRON Y JUAREZ (LA PUENTE),23.34777778,-99.42666667,"23.34777778,-99.42666667"
SAN ANTONIO (JAUMAVE),23.58388889,-99.34361111,"23.58388889,-99.34361111"
LA ESPERANZA (LA POLVAREDA),24.31861111,-98.57527778,"24.31861111,-98.57527778"
EMILIO VAZQUEZ GOMEZ (AGUA FRIA),24.56027778,-99.6525,"24.56027778,-99.6525"
LAS PUENTES (MAINERO),24.55916667,-99.52277778,"24.55916667,-99.52277778"
BUROCRATAS,22.7425,-98.97222222,"22.7425,-98.97222222"
CHAMPILICO,19.74111111,-97.26027778,"19.74111111,-97.26027778"
EL PORVENIR DEL CAMPESINO (OJO ESCONDIDO),29.44333333,-107.7669444,"29.44333333,-107.7669444"
TACATZCUARO,19.72944444,-102.5458333,"19.72944444,-102.5458333"
ILAMACINGO,18.0075,-98.24138889,"18.0075,-98.24138889"
TECOLTEPEC,18.32527778,-97.07916667,"18.32527778,-97.07916667"
CUANALA,19.11055556,-98.32833333,"19.11055556,-98.32833333"
SANTA MARIA MAGDALENA TILTEPEC,16.06333333,-97.17027778,"16.06333333,-97.17027778"
APIZOLAYA,24.81527778,-102.2752778,"24.81527778,-102.2752778"
CHICAYAN,21.76305556,-98.17083333,"21.76305556,-98.17083333"
EL BAYO,18.98388889,-95.97138889,"18.98388889,-95.97138889"
EL COLORADO,19.835,-96.93333333,"19.835,-96.93333333"
TEXCATEPEC,20.58416667,-98.36527778,"20.58416667,-98.36527778"
LOS ESQUIVELES,24.69666667,-102.8183333,"24.69666667,-102.8183333"
COYAY,20.08472222,-97.75611111,"20.08472222,-97.75611111"
COAHUITLAN,20.26,-97.72861111,"20.26,-97.72861111"
YATIPAN,20.86083333,-98.45472222,"20.86083333,-98.45472222"
HUEYTAMALCO,19.93888889,-97.28722222,"19.93888889,-97.28722222"
MACEDONIO ALONSO,20.27416667,-97.69194444,"20.27416667,-97.69194444"
LEACAMAN,20.09861111,-97.64305556,"20.09861111,-97.64305556"
RIO FLORIDO,21.54833333,-98.80694444,"21.54833333,-98.80694444"
CINCO PALOS,19.49861111,-96.98972222,"19.49861111,-96.98972222"
KANASAYAB I,19.15361111,-90.50555556,"19.15361111,-90.50555556"
LOS AMATES,18.47378833,-98.36654139,"18.47378833,-98.36654139"
GUADALUPE HUEXOCUAPAN,18.91666667,-98.53916667,"18.91666667,-98.53916667"
TLAXPANALOYA,20.22444444,-98.11638889,"20.22444444,-98.11638889"
AHUATEPEC (JALTIPAN),17.77138889,-94.67527778,"17.77138889,-94.67527778"
SAN ANTONIO TLATENCO,19.17416667,-98.49611111,"19.17416667,-98.49611111"
MECAPALAPA,20.52666667,-97.85694444,"20.52666667,-97.85694444"
CORCOVADA,22.39694444,-100.6930556,"22.39694444,-100.6930556"
PEOTILLOS,22.49555556,-100.6105556,"22.49555556,-100.6105556"
POBLADO JESUS SANSON FLORES,32.44222222,-115.3730556,"32.44222222,-115.3730556"
EJIDO CUCAPAH INDIGENA,32.12611111,-115.2730556,"32.12611111,-115.2730556"
PUCNACHEN,20.36638889,-90.21888889,"20.36638889,-90.21888889"
TANKUCHE,20.5075,-90.24166667,"20.5075,-90.24166667"
PICH,19.48638889,-90.11805556,"19.48638889,-90.11805556"
ALFREDO V. BONFIL,19.53,-90.18194444,"19.53,-90.18194444"
MELCHOR OCAMPO (CAMPECHE),19.37444444,-90.22722222,"19.37444444,-90.22722222"
QUETZAL EDZNA MODULO UNO,19.45833333,-90.105,"19.45833333,-90.105"
LOS LAURELES,19.48777778,-89.99444444,"19.48777778,-89.99444444"
GENERAL IGNACIO GUTIERREZ,18.9,-90.94583333,"18.9,-90.94583333"
SAN PABLITO,20.30222222,-98.16194444,"20.30222222,-98.16194444"
TLALCRUZ DE LIBRES,20.30416667,-98.1125,"20.30416667,-98.1125"
PANTEPEC (PANTEPEC PUE),20.52305556,-97.93916667,"20.52305556,-97.93916667"
CHINA,19.76972222,-90.49611111,"19.76972222,-90.49611111"
KANASAYAB II,19.16472222,-90.50555556,"19.16472222,-90.50555556"
FELIPE CARRILLO PUERTO (CHAMPOTON),19.09305556,-90.52361111,"19.09305556,-90.52361111"
SANTO DOMINGO KESTE,19.49972222,-90.51138889,"19.49972222,-90.51138889"
LIC. CARLOS SALINAS DE GORTARI MODULO UNO,19.15222222,-90.26583333,"19.15222222,-90.26583333"
SAN VICENTE CUMPICH,20.18666667,-89.97222222,"20.18666667,-89.97222222"
CHUNKANAN,20.24527778,-90.24166667,"20.24527778,-90.24166667"
SANTA CRUZ (HECELCHAKAN),20.20444444,-90.1175,"20.20444444,-90.1175"
CHUNCHINTOK,19.36027778,-89.58083333,"19.36027778,-89.58083333"
ICH-EK,19.73416667,-89.9675,"19.73416667,-89.9675"
RIBERA SANTA CRUZ,18.29755139,-92.10764694,"18.29755139,-92.10764694"
EMILIANO ZAPATA (TENABO),19.82444444,-90.15416667,"19.82444444,-90.15416667"
BENITO JUAREZ (LA POLLA),18.37833333,-90.97527778,"18.37833333,-90.97527778"
DON SAMUEL,18.36,-90.85722222,"18.36,-90.85722222"
MATAMOROS,18.58416667,-90.64861111,"18.58416667,-90.64861111"
CENTENARIO,18.65083333,-90.28333333,"18.65083333,-90.28333333"
EL CARMEN SEGUNDO (LAS CARMELAS),18.15777778,-89.41472222,"18.15777778,-89.41472222"
RICARDO PAYRO JENE (POLO NORTE),18.31777778,-89.44638889,"18.31777778,-89.44638889"
UNION BUENAVISTA (ACALA),16.48527778,-92.81888889,"16.48527778,-92.81888889"
COLOMBIA,15.23333333,-92.65694444,"15.23333333,-92.65694444"
EL ROSARIO MICALTEPEC,18.04666667,-97.85,"18.04666667,-97.85"
PROGRESO (PIAXTLA),18.03666667,-98.31055556,"18.03666667,-98.31055556"
SAN JOSE TETLA,18.11444444,-98.24111111,"18.11444444,-98.24111111"
SOCONUSCO,15.31416667,-92.72694444,"15.31416667,-92.72694444"
MARIANO MATAMOROS,15.25583333,-92.73944444,"15.25583333,-92.73944444"
CONSUELO ULAPA,15.38472222,-92.79305556,"15.38472222,-92.79305556"
LA PALMA (ACAPETAHUA),15.17277778,-92.83722222,"15.17277778,-92.83722222"
LUIS ESPINOZA (ALTAMIRANO),16.58722222,-91.62277778,"16.58722222,-91.62277778"
GUADALUPE (LAS MARGARITAS),16.55333,-91.80139,"16.55333,-91.80139"
NUEVA COLOMBIA,15.69583333,-92.72138889,"15.69583333,-92.72138889"
CIUDAD RURAL JALTENANGO DE LA PAZ (ANGEL ALBINO CORZO),15.87083333,-92.72388889,"15.87083333,-92.72388889"
PALESTINA,15.80527778,-92.74972222,"15.80527778,-92.74972222"
MAJOSIK,16.89778,-92.49333,"16.89778,-92.49333"
NUEVO LEON,16.48611111,-92.57083333,"16.48611111,-92.57083333"
LA TRINITARIA,16.117468,-92.054556,"16.117468,-92.054556"
HEROICA PUEBLA DE ZARAGOZA (1),19.04527778,-98.1975,"19.04527778,-98.1975"
HEROICA PUEBLA DE ZARAGOZA (2),19.04527778,-98.1975,"19.04527778,-98.1975"
QUECHOLAC,18.95722222,-97.66111111,"18.95722222,-97.66111111"
GUADALUPE VICTORIA (AMATENANGO DE LA FRONTERA),15.60666667,-92.06527778,"15.60666667,-92.06527778"
BEJUCAL DE OCAMPO,15.455,-92.15805556,"15.455,-92.15805556"
EMILIANO ZAPATA (BELLA VISTA),15.66916667,-92.23861111,"15.66916667,-92.23861111"
LA RINCONADA,15.59333333,-92.26805556,"15.59333333,-92.26805556"
LA INDEPENDENCIA (BELLA VISTA),15.5675,-92.28027778,"15.5675,-92.28027778"
LA HACIENDA,15.64944444,-92.28083333,"15.64944444,-92.28083333"
BERRIOZABAL (BERRIOZABAL),16.8,-93.27277778,"16.8,-93.27277778"
LAS MARAVILLAS (BERRIOZABAL),16.9575,-93.32027778,"16.9575,-93.32027778"
EL COPAL (BOCHIL),16.96611111,-92.92805556,"16.96611111,-92.92805556"
GARRIDO CANAVAL (CHAVARRIA),17.07472222,-93.02638889,"17.07472222,-93.02638889"
PLATANOS,17.00472222,-92.74333333,"17.00472222,-92.74333333"
EL DESENLACE,15.06531694,-92.09176444,"15.06531694,-92.09176444"
LUIS ESPINOZA (BOCHIL),17.03166667,-93.02694444,"17.03166667,-93.02694444"
SAN PEDRO NICHTALUCUM,17.03444444,-92.72694444,"17.03444444,-92.72694444"
SAN CAYETANO (EL BOSQUE),16.96118806,-92.76016111,"16.96118806,-92.76016111"
ALVARO OBREGON,17.02805556,-92.80833333,"17.02805556,-92.80833333"
FAJA DE ORO,15.03138889,-92.15638889,"15.03138889,-92.15638889"
EL PLATANAR,15.08361111,-92.16222222,"15.08361111,-92.16222222"
EL AGUILA,15.09222222,-92.18305556,"15.09222222,-92.18305556"
TOQUIAN LAS NUBES (TOQUIAN GUARUMO),15.05027778,-92.18972222,"15.05027778,-92.18972222"
AGUSTIN DE ITURBIDE,15.07416667,-92.19833333,"15.07416667,-92.19833333"
SALVADOR URBINA (CACAHOATAN),15.03472222,-92.20833333,"15.03472222,-92.20833333"
IGNACIO ZARAGOZA (CATAZAJA),17.78638889,-91.99138889,"17.78638889,-91.99138889"
CUYO (ALVARO OBREGON),17.84944444,-91.99972222,"17.84944444,-91.99972222"
CATAZAJA,17.725,-92.01416667,"17.725,-92.01416667"
LOMA BONITA (CATAZAJA),17.78555556,-92.0775,"17.78555556,-92.0775"
VENUSTIANO CARRANZA (CINTALAPA),16.8525,-93.67166667,"16.8525,-93.67166667"
ADOLFO LÓPEZ MATEOS (CINTALAPA),16.88027917,-93.71342222,"16.88027917,-93.71342222"
TRIUNFO DE MADERO,16.77083333,-93.77166667,"16.77083333,-93.77166667"
FRANCISCO SARABIA (COMITAN DE DOMINGUEZ),16.15805556,-92.10416667,"16.15805556,-92.10416667"
SEÑOR DEL POZO,16.2975,-92.10972222,"16.2975,-92.10972222"
LOS RIEGOS,16.30472222,-92.12416667,"16.30472222,-92.12416667"
EFRAIN A. GUTIERREZ (COMITAN DE DOMINGUEZ),16.34361111,-92.19861111,"16.34361111,-92.19861111"
ZARAGOZA LA MONTAÑA,16.41666667,-92.20527778,"16.41666667,-92.20527778"
PESQUERIA J. MUJICA,16.05222222,-92.21805556,"16.05222222,-92.21805556"
SANTIAGO NUYOO,17.0125,-97.76666667,"17.0125,-97.76666667"
AGUA CALIENTE (CACAHOATAN),15.16361111,-92.155,"15.16361111,-92.155"
LA FLORESTA,16.50972222,-92.31055556,"16.50972222,-92.31055556"
RIZO DE ORO,15.97027778,-92.48416667,"15.97027778,-92.48416667"
IGNACIO ZARAGOZA (LA CONCORDIA),16.02833333,-92.58777778,"16.02833333,-92.58777778"
LA TIGRILLA,15.98694444,-92.85111111,"15.98694444,-92.85111111"
LA NUEVA,17.04944444,-93.16583333,"17.04944444,-93.16583333"
ANGEL ALBINO CORZO (GUADALUPE),17.12638889,-93.275,"17.12638889,-93.275"
SALAICES,27.03194444,-105.2025,"27.03194444,-105.2025"
CANTEAL,17.00222,-92.59083,"17.00222,-92.59083"
CHALCHIHUITAN,16.96111111,-92.61888889,"16.96111111,-92.61888889"
JOLITONTIC,17.04833333,-92.63861111,"17.04833333,-92.63861111"
NICHNAMTIC,16.744444,-92.536111,"16.744444,-92.536111"
LAS OLLAS,16.78111111,-92.55361111,"16.78111111,-92.55361111"
EL POZO (CHAMULA),16.85166667,-92.57194444,"16.85166667,-92.57194444"
CHICUMTANTIC,16.86555556,-92.60527778,"16.86555556,-92.60527778"
YITIC,16.85722222,-92.62638889,"16.85722222,-92.62638889"
CHAMULA,16.7875,-92.68916667,"16.7875,-92.68916667"
EPALCHEN,16.89138889,-92.69638889,"16.89138889,-92.69638889"
BAUTISTA CHICO,16.79972222,-92.71194444,"16.79972222,-92.71194444"
YALVANTE,16.80638889,-92.77972222,"16.80638889,-92.77972222"
YALTEM,16.84361111,-92.78972222,"16.84361111,-92.78972222"
SAXCHILBALTE,16.68638889,-92.08777778,"16.68638889,-92.08777778"
FRONTERA MEXIQUITO,16.53888889,-92.16555556,"16.53888889,-92.16555556"
CHAPULTENANGO,17.34,-93.12972222,"17.34,-93.12972222"
SHUNUCH,16.90694,-92.58389,"16.90694,-92.58389"
NUEVO CARMEN TONAPAC,16.69666667,-92.95555556,"16.69666667,-92.95555556"
JULIAN GRAJALES (CHIAPA DE CORZO),16.48583333,-92.96777778,"16.48583333,-92.96777778"
NICOLAS BRAVO (CHIAPA DE CORZO),16.50944444,-92.99166667,"16.50944444,-92.99166667"
SALVADOR URBINA (CHIAPA DE CORZO),16.63555556,-93.00277778,"16.63555556,-93.00277778"
JOLTEALAL,17.07682889,-92.62163389,"17.07682889,-92.62163389"
EL PALMAR (SAN GABRIEL),16.84555556,-93.01638889,"16.84555556,-93.01638889"
GALECIO NARCIA,16.58611111,-93.02,"16.58611111,-93.02"
CHIAPILLA,16.56888889,-92.72,"16.56888889,-92.72"
CHICOASEN,16.96611111,-93.105,"16.96611111,-93.105"
PABLO L. SIDAR,15.82972222,-92.28,"15.82972222,-92.28"
CHICOMUSELO,15.74166667,-92.285,"15.74166667,-92.285"
NUEVA AMERICA,15.92138889,-92.30416667,"15.92138889,-92.30416667"
BENITO JUAREZ (CHICOMUSELO),15.895,-92.37361111,"15.895,-92.37361111"
UNION BUENAVISTA (CHICOMUSELO),15.795,-92.54444444,"15.795,-92.54444444"
JET-JA,17.06777778,-91.92805556,"17.06777778,-91.92805556"
XOTXOTJA LAS CANCHAS,17.00472222,-92.11611111,"17.00472222,-92.11611111"
CHICH 2A. SECCION,17.16639,-92.16528,"17.16639,-92.16528"
GUAQUITEPEC,16.98,-92.28805556,"16.98,-92.28805556"
TACUBA NUEVA,17.09027778,-92.37027778,"17.09027778,-92.37027778"
TZAJALÁ,17.13472222,-92.39305556,"17.13472222,-92.39305556"
SAN ANTONIO MIRAMAR,15.38194444,-92.45722222,"15.38194444,-92.45722222"
HOJA BLANCA,15.35694,-92.45806,"15.35694,-92.45806"
VEGA DE JUAREZ,15.38388889,-92.48888889,"15.38388889,-92.48888889"
SAN JUAN PANAMA,15.41194444,-92.50305556,"15.41194444,-92.50305556"
JALAPA,15.375,-92.52888889,"15.375,-92.52888889"
TEPEHUITZ,15.06305556,-92.3375,"15.06305556,-92.3375"
GUADALUPE (HUEHUETAN),14.98,-92.3375,"14.98,-92.3375"
BAZOM,16.73478361,-92.48638083,"16.73478361,-92.48638083"
EMILIANO ZAPATA (HUITIUPAN),17.25388889,-92.63888889,"17.25388889,-92.63888889"
HUITIUPAN,17.17194444,-92.68583333,"17.17194444,-92.68583333"
CHAMULAPITA,15.0675,-92.36944444,"15.0675,-92.36944444"
HUEHUETAN,15.00972222,-92.4075,"15.00972222,-92.4075"
NUEVA VICTORIA,15.02083333,-92.475,"15.02083333,-92.475"
PLAN DE AYALA (HUEHUETAN),14.98388889,-92.47638889,"14.98388889,-92.47638889"
LA LIBERTAD (HUIXTAN),16.71583333,-92.34972222,"16.71583333,-92.34972222"
CARMEN YALCHUCH,16.64638889,-92.3625,"16.64638889,-92.3625"
HUIXTAN,16.71,-92.45277778,"16.71,-92.45277778"
JOSE MARIA MORELOS Y PAVON,17.24111111,-92.7025,"17.24111111,-92.7025"
LA COMPETENCIA,17.23583333,-92.75722222,"17.23583333,-92.75722222"
SANTA RITA CORONADO,15.21833333,-92.47166667,"15.21833333,-92.47166667"
AQUILES SERDAN (HUIXTLA),15.15777778,-92.47555556,"15.15777778,-92.47555556"
FRANCISCO I. MADERO (HUIXTLA),15.07055556,-92.545,"15.07055556,-92.545"
RIO BLANCO (LA INDEPENDENCIA),16.205,-91.63388889,"16.205,-91.63388889"
SAN ANTONIO BUENAVISTA,16.15083333,-91.65111111,"16.15083333,-91.65111111"
VENUSTIANO CARRANZA (LA INDEPENDENCIA),16.18944444,-91.92638889,"16.18944444,-91.92638889"
BUENAVISTA (LA INDEPENDENCIA),16.24277778,-91.98777778,"16.24277778,-91.98777778"
GALEANA,16.22527778,-92.00083333,"16.22527778,-92.00083333"
CHAPAYAL GRANDE,17.29638889,-92.94527778,"17.29638889,-92.94527778"
IXHUATAN,17.29194444,-93.00805556,"17.29194444,-93.00805556"
EL NOPAL (IXTAPA),16.91111111,-92.84527778,"16.91111111,-92.84527778"
IXTAPANGAJOYA,17.49583333,-93.00222222,"17.49583333,-93.00222222"
QUINTANA ROO (JIQUIPILAS),16.60666667,-93.56194444,"16.60666667,-93.56194444"
NUEVA PALESTINA,16.49277778,-93.63361111,"16.49277778,-93.63361111"
JULIAN GRAJALES (JIQUIPILAS),16.42916667,-93.71416667,"16.42916667,-93.71416667"
CUAUHTEMOC (JIQUIPILAS),16.55,-93.71611111,"16.55,-93.71611111"
EL TRIUNFO (JIQUIPILAS),16.46416667,-93.75166667,"16.46416667,-93.75166667"
TIERRA Y LIBERTAD,16.37888889,-93.86055556,"16.37888889,-93.86055556"
CARMEN ZACATAL,17.08083333,-92.8025,"17.08083333,-92.8025"
JITOTOL,17.06694444,-92.86194444,"17.06694444,-92.86194444"
EL TRIUNFO (JUAREZ),17.60777778,-93.23305556,"17.60777778,-93.23305556"
TALONHUITZ,16.90527778,-92.72555556,"16.90527778,-92.72555556"
JOLNACHOJ,16.91527778,-92.77666667,"16.91527778,-92.77666667"
JOSE MARIA MORELOS Y PAVON CENTRO,17.68138889,-91.81194444,"17.68138889,-91.81194444"
SESECAPA,15.40083333,-92.82194444,"15.40083333,-92.82194444"
JOSE PANTALEON DOMINGUEZ,15.51277778,-92.83277778,"15.51277778,-92.83277778"
NICOLAS BRAVO UNO ANEXO EMILIANO ZAPATA,15.355,-92.83888889,"15.355,-92.83888889"
TRES DE MAYO,15.57083333,-92.86611111,"15.57083333,-92.86611111"
NUEVO MILENIO VALDIVIA,15.50305556,-92.94861111,"15.50305556,-92.94861111"
PROGRESO DE CHIAPAS,15.525,-92.9525,"15.525,-92.9525"
FRANCISCO SARABIA (LA BLANCA),15.41916667,-92.99694444,"15.41916667,-92.99694444"
LA FORTUNA GALLO GIRO,16.18027778,-91.35027778,"16.18027778,-91.35027778"
NUEVO SANTO TOMAS,16.20333333,-91.41027778,"16.20333333,-91.41027778"
NUEVO HUIXTAN,16.15555556,-91.41305556,"16.15555556,-91.41305556"
GUADALUPE LOS ALTOS,16.30277778,-91.42138889,"16.30277778,-91.42138889"
EL EDEN,16.29166667,-91.63694444,"16.29166667,-91.63694444"
VICENTE GUERRERO (LAS MARGARITAS),16.38361111,-91.67444444,"16.38361111,-91.67444444"
LA ESPERANZA (LAS MARGARITAS),16.4875,-91.68778,"16.4875,-91.68778"
EL PARAISO (LAS MARGARITAS),16.27666667,-91.74194444,"16.27666667,-91.74194444"
ABSALON CASTELLANOS DOMINGUEZ,16.53337,-91.799838,"16.53337,-91.799838"
CHIAPAS,16.3825,-91.86527778,"16.3825,-91.86527778"
FRANCISCO I. MADERO (LAS MARGARITAS),16.29361111,-91.90888889,"16.29361111,-91.90888889"
SALTILLO (LAS MARGARITAS),16.39333333,-91.94805556,"16.39333333,-91.94805556"
SAN CARALAMPIO (LAS MARGARITAS),16.56472222,-91.96777778,"16.56472222,-91.96777778"
PLAN DE AYALA (LAS MARGARITAS),16.47444444,-92.025,"16.47444444,-92.025"
BAJUCU,16.475,-92.06166667,"16.475,-92.06166667"
YASHA,16.39166667,-92.06861111,"16.39166667,-92.06861111"
VEINTE DE NOVIEMBRE (LAS MARGARITAS),16.62,-92.08194444,"16.62,-92.08194444"
NUEVO MEXICO (LAS MARGARITAS),16.56916667,-92.085,"16.56916667,-92.085"
VALLE OBREGON,15.41583333,-92.15972222,"15.41583333,-92.15972222"
JUAREZ CHEMALE,15.42666667,-92.20083333,"15.42666667,-92.20083333"
VERDAD DEL TRIUNFO,15.35056,-92.21056,"15.35056,-92.21056"
EL AGUACATE,14.84111111,-92.42833333,"14.84111111,-92.42833333"
BUENOS AIRES,14.88888889,-92.48111111,"14.88888889,-92.48111111"
EFRAIN A. GUTIERREZ (MAZATAN),14.81166667,-92.48111111,"14.81166667,-92.48111111"
OXINAM,16.86305556,-92.54916667,"16.86305556,-92.54916667"
NIQUIVIL,15.25777778,-92.2125,"15.25777778,-92.2125"
IGNACIO ZARAGOZA (MOTOZINTLA),15.23916667,-92.23055556,"15.23916667,-92.23055556"
BUENAVISTA (MOTOZINTLA),15.28194444,-92.23666667,"15.28194444,-92.23666667"
XELAJU (MOTOZINTLA DE MENDOZA),15.3625,-92.24805556,"15.3625,-92.24805556"
TOLIMAM,15.31972222,-92.32888889,"15.31972222,-92.32888889"
BREMEN,15.22,-92.34944444,"15.22,-92.34944444"
SAN JOSE IXTEPEC,15.35166667,-92.3775,"15.35166667,-92.3775"
EL HORIZONTE,15.37139,-92.15639,"15.37139,-92.15639"
BELISARIO DOMINGUEZ,15.29944444,-92.38055556,"15.29944444,-92.38055556"
NUEVA ESPERANZA (MOTOZINTLA),15.33833333,-92.3825,"15.33833333,-92.3825"
NUEVA MARAVILLAS,15.29388889,-92.44416667,"15.29388889,-92.44416667"
NICOLAS RUIZ,16.43722222,-92.58472222,"16.43722222,-92.58472222"
LACANJA CHANSAYAB,16.7622,-91.13,"16.7622,-91.13"
VIEJO VELASCO SUAREZ,16.81722222,-91.26,"16.81722222,-91.26"
NUEVO FRANCISCO LEON,17.02916667,-91.32027778,"17.02916667,-91.32027778"
UBILIO GARCIA,17.0825,-91.47194444,"17.0825,-91.47194444"
EL SIBAL,16.98,-91.49111111,"16.98,-91.49111111"
TANIPERLA,16.82222222,-91.52333333,"16.82222222,-91.52333333"
NAHA,16.97583333,-91.57972222,"16.97583333,-91.57972222"
SANTO TON,16.93722,-91.88806,"16.93722,-91.88806"
SIBACA,16.93,-92.13916667,"16.93,-92.13916667"
CUXULJA,16.81166667,-92.17027778,"16.81166667,-92.17027778"
ABASOLO (OCOSINGO),16.82138889,-92.21527778,"16.82138889,-92.21527778"
TENANGO (OCOSINGO),16.90472222,-92.26138889,"16.90472222,-92.26138889"
OCOTEPEC (OCOTEPEC CHIS),17.22416667,-93.16472222,"17.22416667,-93.16472222"
SAN PABLO HUACANO,17.19583333,-93.2075,"17.19583333,-93.2075"
VICENTE GUERRERO (MATAMOROS),16.68,-93.26194444,"16.68,-93.26194444"
JUAN DE GRIJALVA,17.05972222,-93.51638889,"17.05972222,-93.51638889"
OSUMACINTA,16.93611111,-93.09027778,"16.93611111,-93.09027778"
EL CORRALITO,16.82312056,-92.25129611,"16.82312056,-92.25129611"
SANTA INES AHUATEMPAN,18.41722222,-98.01694444,"18.41722222,-98.01694444"
HIDALGO (ACACOYAGUA),15.35,-92.74138889,"15.35,-92.74138889"
SAN QUINTIN,16.40583333,-91.34583333,"16.40583333,-91.34583333"
CINTALAPA (OCOSINGO),16.92388889,-91.36083333,"16.92388889,-91.36083333"
NUEVO CANAN,17.17083333,-91.47722222,"17.17083333,-91.47722222"
CAMPO ALEGRE,16.9425,-91.94278,"16.9425,-91.94278"
CRUZILJA (MEDIA LUNA),16.825,-92.30972,"16.825,-92.30972"
EL TZAY,16.86361,-92.31222,"16.86361,-92.31222"
JOVILTON,16.8294775,-92.325495,"16.8294775,-92.325495"
TZUNUN,16.83942,-92.37458722,"16.83942,-92.37458722"
YOSHIB,16.84527778,-92.44611111,"16.84527778,-92.44611111"
VISTAHERMOSA,17.33519611,-91.5067475,"17.33519611,-91.5067475"
EL CLAVO,17.38472222,-91.63055556,"17.38472222,-91.63055556"
REFORMA AGRARIA (CHINIQUIJA),17.40916667,-91.66138889,"17.40916667,-91.66138889"
LA REFORMA DE OCAMPO,17.31638889,-91.69583333,"17.31638889,-91.69583333"
LIC. JOSE CASTILLO TIELMANS,17.39694444,-91.81388889,"17.39694444,-91.81388889"
AGUA BLANCA SERRANIA,17.26611111,-91.83444444,"17.26611111,-91.83444444"
FRANCISCO I. MADERO NORTE,17.68694444,-91.87944444,"17.68694444,-91.87944444"
CHANCALA ZAPOTE,17.40861111,-91.9,"17.40861111,-91.9"
PROFR. ROBERTO BARRIOS,17.32583333,-91.92638889,"17.32583333,-91.92638889"
DOCTOR SAMUEL LEON BRINDIS,17.43527778,-91.93194444,"17.43527778,-91.93194444"
BABILONIA 1A. SECCION,17.48055556,-91.99083333,"17.48055556,-91.99083333"
BAJADAS GRANDES,17.70027778,-92.2625,"17.70027778,-92.2625"
EL ROBLAR,17.08110417,-92.42162222,"17.08110417,-92.42162222"
PANTELHO,17.00555556,-92.46888889,"17.00555556,-92.46888889"
AURORA ESQUIPULAS,17.1175,-92.47611111,"17.1175,-92.47611111"
AQUILES SERDAN (SANTA LUCIA),17.09933556,-92.49381944,"17.09933556,-92.49381944"
PANTEPEC (PANTEPEC CHIS),17.18722222,-93.04916667,"17.18722222,-93.04916667"
NUEVO NICAPA,17.63416667,-93.07138889,"17.63416667,-93.07138889"
PICHUCALCO,17.59333333,-93.32472222,"17.59333333,-93.32472222"
PLUTARCO ELIAS CALLES,17.61388889,-93.395,"17.61388889,-93.395"
PLAN DE AYALA (PIJIJIAPAN),15.66111111,-93.03638889,"15.66111111,-93.03638889"
JOAQUIN MIGUEL GUTIERREZ (MARGARITAS),15.55027778,-93.09305556,"15.55027778,-93.09305556"
LAS CUACHES,15.45861111,-93.1475,"15.45861111,-93.1475"
EL PALMARCITO,15.4975,-93.21388889,"15.4975,-93.21388889"
CELESTINO GASCA VILLASEÑOR (NUEVO MILENIO),15.80722,-93.36194,"15.80722,-93.36194"
CANADA,15.447955,-92.22684278,"15.447955,-92.22684278"
CHIMALE,15.40972222,-92.24,"15.40972222,-92.24"
CHIMALAPA,15.39777778,-92.24083333,"15.39777778,-92.24083333"
MALE UNO,15.43222,-92.24722,"15.43222,-92.24722"
SAN JOSE CHAPAYAL,17.30055556,-92.89027778,"17.30055556,-92.89027778"
RAYON (RAYON CHIS),17.20027778,-93.01138889,"17.20027778,-93.01138889"
CRISTO REY,17.83722222,-93.27694444,"17.83722222,-93.27694444"
BUENAVISTA (SABANILLA),17.22555556,-92.52666667,"17.22555556,-92.52666667"
SAN MIGUEL (SALTO DE AGUA),17.36027778,-92.00805556,"17.36027778,-92.00805556"
JERUSALEN,17.36805556,-92.06083333,"17.36805556,-92.06083333"
EL TORTUGUERO 1A. SECCION,17.30444444,-92.12111111,"17.30444444,-92.12111111"
HUANAL,17.49444,-92.22361,"17.49444,-92.22361"
ALFONSO MOGUEL,16.6675,-93.50638889,"16.6675,-93.50638889"
EL PORVENIR DE VELASCO SUAREZ,15.45555556,-92.27944444,"15.45555556,-92.27944444"
EL CAMBIL,15.42777778,-92.32083333,"15.42777778,-92.32083333"
PROVIDENCIA (VILLA COMALTITLAN),15.30861111,-92.53,"15.30861111,-92.53"
LAZARO CARDENAS (VILLA COMALTITLAN),15.17555556,-92.55194444,"15.17555556,-92.55194444"
VICENTE GUERRERO (VILLA COMALTITLAN),15.26055556,-92.55472222,"15.26055556,-92.55472222"
CANTON LAS BRISAS,15.14916667,-92.625,"15.14916667,-92.625"
HIDALGO (VILLA COMALTITLAN),15.16111111,-92.62916667,"15.16111111,-92.62916667"
SONORA,17.17277778,-92.83583333,"17.17277778,-92.83583333"
SUCLUMPA,17.41111111,-92.16444444,"17.41111111,-92.16444444"
DOS ARROYOS 1A. SECCION,17.615,-92.24416667,"17.615,-92.24416667"
CENOBIO AGUILAR (LA TRINIDAD),17.40472222,-92.31944444,"17.40472222,-92.31944444"
PUEBLO NUEVO (SALTO DE AGUA),17.58777778,-92.37861111,"17.58777778,-92.37861111"
EL RODEO (SILTEPEC),15.475,-92.27277778,"15.475,-92.27277778"
LIBERTAD VENTANAS,15.53805556,-92.27555556,"15.53805556,-92.27555556"
SILTEPEC,15.55555556,-92.32361111,"15.55555556,-92.32361111"
VEGA DE GUERRERO,15.56833333,-92.34555556,"15.56833333,-92.34555556"
ANGEL DIAZ,15.54944444,-92.40388889,"15.54944444,-92.40388889"
LAS MORAS (SILTEPEC),15.55916667,-92.42888889,"15.55916667,-92.42888889"
CERRO PEROTE,15.65219639,-92.43084,"15.65219639,-92.43084"
LAS DELICIAS (SILTEPEC),15.63361111,-92.50111111,"15.63361111,-92.50111111"
ADOLFO LOPEZ MATEOS (ACALA),16.608465,-92.89382194,"16.608465,-92.89382194"
LOS LUCEROS 2A. SECCION,17.52888889,-92.42305556,"17.52888889,-92.42305556"
SAN JOSE YASHITININ,16.65472222,-92.445,"16.65472222,-92.445"
LA CANDELARIA (SAN CRISTOBAL DE LAS CASAS),16.74361111,-92.52,"16.74361111,-92.52"
GABRIEL ESQUINCA,16.93722222,-93.17388889,"16.93722222,-93.17388889"
BENITO JUAREZ (SAN FERNANDO),16.88055556,-93.18777778,"16.88055556,-93.18777778"
SAN FERNANDO,16.87083333,-93.20583333,"16.87083333,-93.20583333"
EL PALMAR GRANDE,15.50027778,-92.25361111,"15.50027778,-92.25361111"
PABLO GALEANA,15.57,-92.53972222,"15.57,-92.53972222"
LAS MARAVILLAS (SIMOJOVEL),17.13472222,-92.55638889,"17.13472222,-92.55638889"
LUIS ESPINOSA (SIMOJOVEL),17.11555556,-92.69,"17.11555556,-92.69"
TZINIL,16.25777778,-92.32222222,"16.25777778,-92.32222222"
SOCOLTENANGO,16.24305556,-92.35055556,"16.24305556,-92.35055556"
LAZARO CARDENAS (SOCOLTENANGO),16.16027778,-92.35583333,"16.16027778,-92.35583333"
EL SANTUARIO,16.11666667,-92.43888889,"16.11666667,-92.43888889"
SOLOSUCHIAPA,17.42777778,-93.03083333,"17.42777778,-93.03083333"
SOYALO,16.89027778,-92.92472222,"16.89027778,-92.92472222"
FRANCISCO SARABIA (SOYALO),16.94583333,-93.01305556,"16.94583333,-93.01305556"
EL CAMPITO,14.67611111,-92.175,"14.67611111,-92.175"
IGNACIO LOPEZ RAYON,14.62305556,-92.18638889,"14.62305556,-92.18638889"
LA LIBERTAD (SUCHIATE),14.59166667,-92.19333333,"14.59166667,-92.19333333"
DORADO NUEVO,14.67416667,-92.21055556,"14.67416667,-92.21055556"
EL GANCHO,14.56305556,-92.25527778,"14.56305556,-92.25527778"
20 DE NOVIEMBRE (SUCHIATE),14.71361111,-92.26055556,"14.71361111,-92.26055556"
BARRA DE CAHOACAN (EL CHICAL),14.64083333,-92.30194444,"14.64083333,-92.30194444"
SUNUAPA,17.48888889,-93.24305556,"17.48888889,-93.24305556"
PAVENCUL,15.20138889,-92.17972222,"15.20138889,-92.17972222"
NUEVO CHESPAL,15.11472222,-92.21055556,"15.11472222,-92.21055556"
TOQUIAN CHIQUITO,15.15444,-92.23,"15.15444,-92.23"
FRACCION LAS PALMAS,15.0447125,-92.23424,"15.0447125,-92.23424"
VEINTISEIS DE OCTUBRE,15.08388889,-92.25194444,"15.08388889,-92.25194444"
MARIO SOUZA,15.12951667,-92.25405028,"15.12951667,-92.25405028"
VEINTE DE NOVIEMBRE (TAPACHULA),14.97694444,-92.26444444,"14.97694444,-92.26444444"
SANTA ELENA,15.08056,-92.27167,"15.08056,-92.27167"
CINCO DE MAYO (TAPACHULA),15.0375,-92.28472222,"15.0375,-92.28472222"
EL TRIUNFO (TAPACHULA),15.14762917,-92.3766625,"15.14762917,-92.3766625"
TAPALAPA,17.18944444,-93.10472222,"17.18944444,-93.10472222"
NUEVA ESPERANZA (TILA),17.24833333,-92.45416667,"17.24833333,-92.45416667"
EL PORVENIR (TAPACHULA),14.99694444,-92.29277778,"14.99694444,-92.29277778"
EL NARANJO (TAPACHULA),15.20833333,-92.30166667,"15.20833333,-92.30166667"
PORTACELI,17.24722,-92.98833,"17.24722,-92.98833"
EMILIANO ZAPATA (TECPATAN),17.21777778,-93.34305556,"17.21777778,-93.34305556"
JUAN SABINES GUTIERREZ,17.23583333,-93.4175,"17.23583333,-93.4175"
LUIS ESPINOSA (TECPATAN),17.15027778,-93.42166667,"17.15027778,-93.42166667"
LAZARO CARDENAS 2,17.2525,-93.48528,"17.2525,-93.48528"
TZAJALCHEN,16.84138889,-92.46083333,"16.84138889,-92.46083333"
SIBANILJA POCOLUM,16.87638889,-92.46111111,"16.87638889,-92.46111111"
JOMANICHIM,16.90056,-92.47222,"16.90056,-92.47222"
SIBACTEL,16.87611,-92.49139,"16.87611,-92.49139"
TENEJAPA,16.81722222,-92.50722222,"16.81722222,-92.50722222"
CAMPANARIO,17.46694444,-92.35111111,"17.46694444,-92.35111111"
EL LIMAR,17.41472222,-92.40277778,"17.41472222,-92.40277778"
CANTIOC,17.26222222,-92.40694444,"17.26222222,-92.40694444"
JOLPOKITIOC,17.27305556,-92.45027778,"17.27305556,-92.45027778"
EL CRUCERO,17.36913167,-92.46275806,"17.36913167,-92.46275806"
SHOCTIC,17.22361111,-92.48805556,"17.22361111,-92.48805556"
JOLNISHTIE 1RA. SECCION,17.42944444,-92.51,"17.42944444,-92.51"
PASO CHINAL,17.49638889,-92.51277778,"17.49638889,-92.51277778"
CHULUM JUAREZ,17.33194444,-92.53388889,"17.33194444,-92.53388889"
CHULUM CARDENAS,17.38416667,-92.57388889,"17.38416667,-92.57388889"
GENERAL ALBERTO PINEDA,15.82111111,-93.43722222,"15.82111111,-93.43722222"
TRES PICOS,15.87916667,-93.52694444,"15.87916667,-93.52694444"
MIGUEL HIDALGO NO. 1,16.10833333,-93.69777778,"16.10833333,-93.69777778"
TOTOLAPA,16.54444444,-92.68111111,"16.54444444,-92.68111111"
CUAUHTEMOC (LA TRINITARIA),16.10888889,-91.61611111,"16.10888889,-91.61611111"
VICENTE GUERRERO (LA TRINITARIA),16.00444444,-91.82083333,"16.00444444,-91.82083333"
RODULFO FIGUEROA,15.92027778,-91.90361111,"15.92027778,-91.90361111"
CHIHUAHUA,16.03,-91.97333333,"16.03,-91.97333333"
PLAN DE AYALA (LA TRINITARIA),15.93805556,-92.08027778,"15.93805556,-92.08027778"
VENUSTIANO CARRANZA (TUMBALA),17.30277778,-92.17305556,"17.30277778,-92.17305556"
JOLJAMIL,17.26194444,-92.32222222,"17.26194444,-92.32222222"
HIDALGO JOSHIL,17.22583333,-92.34666667,"17.22583333,-92.34666667"
MARISCAL SUBIKUSKI,17.3325,-92.38083333,"17.3325,-92.38083333"
TUXTLA GUTIERREZ,16.75305556,-93.11555556,"16.75305556,-93.11555556"
EL SUR DE GUILLEN,14.88888889,-92.16666667,"14.88888889,-92.16666667"
MANUEL LAZOS,14.97138889,-92.18777778,"14.97138889,-92.18777778"
SILVANO GATICA,14.95972222,-92.20583333,"14.95972222,-92.20583333"
SAN PEDRO TEPOZOTECO,19.69,-97.21083333,"19.69,-97.21083333"
ESPERANZA JOYETA,17.25361111,-92.2025,"17.25361111,-92.2025"
MIGUEL HIDALGO (TUXTLA CHICO),14.9375,-92.20972222,"14.9375,-92.20972222"
GUADALUPE VICTORIA (TUXTLA CHICO),14.805,-92.25,"14.805,-92.25"
SAN CRISTOBAL (TUZANTAN),15.18141778,-92.36249056,"15.18141778,-92.36249056"
TUZANTAN,15.14583333,-92.42222222,"15.14583333,-92.42222222"
ESTACION TUZANTAN,15.10555556,-92.45166667,"15.10555556,-92.45166667"
TZIMOL,16.1875,-92.19694444,"16.1875,-92.19694444"
HEROES DE CHAPULTEPEC (EL LIMON),16.06916667,-92.28638889,"16.06916667,-92.28638889"
SAN VICENTE LA MESILLA,16.17861111,-92.29333333,"16.17861111,-92.29333333"
TALQUIAN,15.08527778,-92.08444444,"15.08527778,-92.08444444"
SAN RAFAEL (UNION JUAREZ),15.05776,-92.1111375,"15.05776,-92.1111375"
EUREKA,15.06138889,-92.12638889,"15.06138889,-92.12638889"
AGUACATENANGO,16.47222222,-92.40777778,"16.47222222,-92.40777778"
SOYATITAN,16.29416667,-92.42527778,"16.29416667,-92.42527778"
MIGUEL HIDALGO (VENUSTIANO CARRANZA),16.34916667,-92.62805556,"16.34916667,-92.62805556"
VICENTE GUERRERO (VENUSTIANO CARRANZA CHIS),16.43694444,-92.71138889,"16.43694444,-92.71138889"
NUEVO VICENTE GUERRERO,16.04027778,-92.97638889,"16.04027778,-92.97638889"
VALLE MORELOS,16.13611111,-92.99888889,"16.13611111,-92.99888889"
REVOLUCION MEXICANA,16.17,-93.07388889,"16.17,-93.07388889"
FRANCISCO MURGUIA,15.96333333,-93.19277778,"15.96333333,-93.19277778"
SAN DIEGO EL ORGANAL,18.73083333,-98.51666667,"18.73083333,-98.51666667"
ZARAGOZA (IXTACAMAXTITLAN),19.56611111,-97.80694444,"19.56611111,-97.80694444"
RICARDO FLORES MAGON (VENUSTIANO CARRANZA),16.39416667,-92.69583333,"16.39416667,-92.69583333"
10 DE MAYO,16.15055556,-93.115,"16.15055556,-93.115"
IGNACIO ZARAGOZA (VILLA CORZO),15.95444444,-93.225,"15.95444444,-93.225"
MONTERREY (VILLA CORZO),16.06027778,-93.36888889,"16.06027778,-93.36888889"
SIERRA MORENA,16.15222,-93.59028,"16.15222,-93.59028"
IGNACIO ZARAGOZA (VILLAFLORES),16.37027778,-93.13388889,"16.37027778,-93.13388889"
GUADALUPE VICTORIA (VILLAFLORES),16.34889,-93.13889,"16.34889,-93.13889"
VILLA HIDALGO (VILLAFLORES),16.30388889,-93.15416667,"16.30388889,-93.15416667"
CUAUHTEMOC (VILLAFLORES),16.31277778,-93.20972222,"16.31277778,-93.20972222"
BENITO JUAREZ (VILLAFLORES),16.42638889,-93.32,"16.42638889,-93.32"
FRANCISCO VILLA (VILLAFLORES),16.2125,-93.33638889,"16.2125,-93.33638889"
TENOCHTITLAN,16.45611111,-93.36166667,"16.45611111,-93.36166667"
HERIBERTO JARA,16.19777778,-93.43861111,"16.19777778,-93.43861111"
AGRONOMOS MEXICANOS,16.35,-93.53,"16.35,-93.53"
LOS ANGELES (VILLAFLORES),16.26916667,-93.63861111,"16.26916667,-93.63861111"
AMADO NERVO (YAJALON),17.22916667,-92.24444444,"17.22916667,-92.24444444"
LAZARO CARDENAS (YAJALON),17.19788306,-92.38106722,"17.19788306,-92.38106722"
SAN LUCAS (SAN LUCAS),16.61166667,-92.71805556,"16.61166667,-92.71805556"
SEQUEDAD,22.43777778,-100.5613889,"22.43777778,-100.5613889"
ZINACANTAN,16.75972222,-92.72222222,"16.75972222,-92.72222222"
PASTE,16.70722222,-92.74083333,"16.70722222,-92.74083333"
ZEQUENTIC,16.71694444,-92.82666667,"16.71694444,-92.82666667"
SAN JUAN CANCUC,16.89166667,-92.37083333,"16.89166667,-92.37083333"
EL POZO (SAN JUAN CANCUC),16.92034083,-92.41165889,"16.92034083,-92.41165889"
NICHTEEL,16.94805556,-92.42861111,"16.94805556,-92.42861111"
FLOR DE CACAO,16.12888889,-90.45111111,"16.12888889,-90.45111111"
MONTECRISTO,15.6925,-92.61944444,"15.6925,-92.61944444"
PUEBLITO DE ALLENDE,26.98777778,-105.3252778,"26.98777778,-105.3252778"
EL PORVENIR (BACHINIVA),28.85583333,-107.1286111,"28.85583333,-107.1286111"
SAN PEDRO PETLACOTLA,20.40805556,-97.91555556,"20.40805556,-97.91555556"
EL ZACATAL (TLACUILOTEPEC),20.36972222,-97.98138889,"20.36972222,-97.98138889"
TLACHICHUCA,19.19618667,-97.4385775,"19.19618667,-97.4385775"
PUERTO RICO (MONTECRISTO DE GUERRERO),15.66416667,-92.71222222,"15.66416667,-92.71222222"
SAN ANDRES DURAZNAL,17.12861111,-92.80333333,"17.12861111,-92.80333333"
SANTIAGO EL PINAR,16.93972222,-92.71444444,"16.93972222,-92.71444444"
CAPITAN LUIS A. VIDAL,15.60083333,-92.62888889,"15.60083333,-92.62888889"
RINCON CHAMULA,17.20694444,-92.93861111,"17.20694444,-92.93861111"
JERICO (PORVENIR JERICO),16.28833333,-92.96222222,"16.28833333,-92.96222222"
EL PARRAL,16.36611111,-93.00638889,"16.36611111,-93.00638889"
NUEVO VICENTE GUERRERO (EL CHICHONAL),16.48527778,-92.87138889,"16.48527778,-92.87138889"
20 DE NOVIEMBRE (ACALA),16.53833333,-92.89694444,"16.53833333,-92.89694444"
RAFAEL CAL Y MAYOR,16.96194444,-94.01555556,"16.96194444,-94.01555556"
EL PUEBLITO (ALDAMA),29.09972222,-105.1113889,"29.09972222,-105.1113889"
PLAN DE AYALA (ALLENDE),27.31300556,-105.192655,"27.31300556,-105.192655"
RANCHO COLORADO,28.84138889,-107.3369444,"28.84138889,-107.3369444"
BAQUIRIACHI,26.95583333,-106.6202778,"26.95583333,-106.6202778"
GENERAL CARLOS PACHECO (EL TERRERO),27.01694444,-106.345,"27.01694444,-106.345"
LUIS ESPINOZA (ACAPETAHUA),15.18888889,-92.69138889,"15.18888889,-92.69138889"
EJIDO GUAJOLOTES,26.40222222,-106.4925,"26.40222222,-106.4925"
EJIDO GUAZARACHI (RANCHERIA GUAZARACHI),26.98861111,-106.7127778,"26.98861111,-106.7127778"
LA MAGDALENA (BALLEZA),26.86944444,-106.3225,"26.86944444,-106.3225"
TECORICHI,26.74569917,-106.7275731,"26.74569917,-106.7275731"
EL VERGEL (EJIDO EL VERGEL),26.47416667,-106.3883333,"26.47416667,-106.3883333"
POLANCO (RANCHERIA MINERAL POLANCO),26.83361111,-107.6358333,"26.83361111,-107.6358333"
MESA YERBABUENA (LA YERBABUENA),27.10611111,-107.6647222,"27.10611111,-107.6647222"
YOQUIVO,27.02138889,-107.5347222,"27.02138889,-107.5347222"
SAN JOSE DE GUACAYVO,27.74416667,-107.8158333,"27.74416667,-107.8158333"
SAN LUIS DE MAJIMACHI,27.59297444,-107.7935356,"27.59297444,-107.7935356"
OJACHICHI,27.79325194,-107.2804789,"27.79325194,-107.2804789"
BACABUREACHI,27.795,-107.1197222,"27.795,-107.1197222"
NARARACHI,27.58450278,-107.1132572,"27.58450278,-107.1132572"
OJOS AZULES (LA MAQUINA),28.02222222,-106.9575,"28.02222222,-106.9575"
SAN JOSE BAQUEACHI,27.64361111,-106.9897222,"27.64361111,-106.9897222"
JUAN MATA ORTIZ (PEARSON),30.18111111,-108.0227778,"30.18111111,-108.0227778"
ITURRALDE (EL ORIENTE),26.80083333,-105.1352778,"26.80083333,-105.1352778"
LA QUEMADA,28.84638889,-107.0208333,"28.84638889,-107.0208333"
RANCHO DE GONZALEZ,28.1625,-106.9947222,"28.1625,-106.9947222"
EL CHARCO,28.41861111,-106.1602778,"28.41861111,-106.1602778"
COLONIA NUEVAS DELICIAS,29.07277778,-106.2513889,"29.07277778,-106.2513889"
BENJAMIN M. CHAPARRO (SANTA ANA),27.63611111,-108.5308333,"27.63611111,-108.5308333"
LAS CHINACAS,27.24277778,-108.6472222,"27.24277778,-108.6472222"
GOROGACHI,27.27222222,-108.5344444,"27.27222222,-108.5344444"
GUADALUPE VICTORIA (CHINIPAS),27.52805556,-108.4891667,"27.52805556,-108.4891667"
SAN RAFAEL DE ORIVO,27.63102528,-108.36188,"27.63102528,-108.36188"
TUTUACA (SANTA BARBARA DE TUTUACA),28.02861111,-106.5366667,"28.02861111,-106.5366667"
NUEVO PALOMAS,28.37055556,-106.255,"28.37055556,-106.255"
TRES OJITOS,28.32361111,-106.6563889,"28.32361111,-106.6563889"
BASIHUARE,27.46805556,-107.4888889,"27.46805556,-107.4888889"
CABORACHI,26.82888889,-106.9519444,"26.82888889,-106.9519444"
CIENEGA DE NOROGACHI (LA CIENEGA),27.21048833,-107.0476764,"27.21048833,-107.0476764"
RANCHERIA CIENEGA PRIETA,26.70583333,-107.25,"26.70583333,-107.25"
GUAHUACHIQUE,27.38694444,-107.6838889,"27.38694444,-107.6838889"
ROCHEACHI,27.06027778,-107.1738889,"27.06027778,-107.1738889"
SANTA ANITA,26.83493694,-107.4426681,"26.83493694,-107.4426681"
TATAHUICHI,27.26798472,-107.3099047,"27.26798472,-107.3099047"
SAMACHIQUE,27.30138889,-107.5402778,"27.30138889,-107.5402778"
NOROGACHI,27.27305556,-107.1319444,"27.27305556,-107.1319444"
SAN GREGORIO (HUIXTAN),16.6875,-92.38889,"16.6875,-92.38889"
ADOLFO LOPEZ MATEOS (HUIXTAN),16.75138889,-92.415,"16.75138889,-92.415"
SAN JOSE BELEN,16.24528,-91.67111,"16.24528,-91.67111"
EL TRIUNFO (LA INDEPENDENCIA),16.2025,-91.86,"16.2025,-91.86"
TONACHI,27.41631194,-107.7038053,"27.41631194,-107.7038053"
HUICHAGOACHI,27.50770028,-107.5554731,"27.50770028,-107.5554731"
ABOREACHI,27.118284,-107.377319,"27.118284,-107.377319"
LLANO BLANCO,26.035,-106.8813889,"26.035,-106.8813889"
LLANO GRANDE (GUADALUPE Y CALVO),26.27661722,-107.1059742,"26.27661722,-107.1059742"
MESA DE SAN RAFAEL,25.78222222,-106.6558333,"25.78222222,-106.6558333"
SAN PEDRO DE CHINATU (RANCHERIA SAN PEDRO),26.18555556,-106.6211111,"26.18555556,-106.6211111"
SANTA ROSALIA DE CARRIZAL,25.74583333,-107.0138889,"25.74583333,-107.0138889"
SANTO DOMINGO (GUADALUPE Y CALVO),26.07305556,-107.2102778,"26.07305556,-107.2102778"
TOHAYANA,26.17039,-107.6956342,"26.17039,-107.6956342"
BARBECHITOS,26.4125,-107.0238889,"26.4125,-107.0238889"
TURUACHI,26.13138889,-106.7041667,"26.13138889,-106.7041667"
LAS YERBITAS (ASERRADERO YERBITAS),26.08025333,-106.7796867,"26.08025333,-106.7796867"
GUAZAPARES,27.37138889,-108.2811111,"27.37138889,-108.2811111"
SAN MATEO TLAIXPAN,18.915,-97.73527778,"18.915,-97.73527778"
LA TAPONA (VILLA HIDALGO),22.78861111,-100.6452778,"22.78861111,-100.6452778"
AGUA DEL MEDIO,22.16388889,-100.2358333,"22.16388889,-100.2358333"
EL BAJIO LARGO DE ATASCADEROS,25.735,-106.7958333,"25.735,-106.7958333"
SAN IGNACIO DE CIENEGUILLA,26.22300361,-107.5340344,"26.22300361,-107.5340344"
OROZCO (SAN ISIDRO PASCUAL OROZCO),28.57638889,-107.4436111,"28.57638889,-107.4436111"
PACHERA,28.28333333,-107.4011111,"28.28333333,-107.4011111"
PEDERNALES,28.41083333,-107.1086111,"28.41083333,-107.1086111"
ESTACION TERRERO,28.24972222,-107.4402778,"28.24972222,-107.4402778"
TOMOCHI,28.34749944,-107.8461286,"28.34749944,-107.8461286"
CHOCACHI,28.19473806,-107.9355172,"28.19473806,-107.9355172"
IGNACIO ALLENDE (IGNACIO ZARAGOZA),29.59333333,-107.7236111,"29.59333333,-107.7236111"
PANCHO VILLA (LA MORITA),30.8025,-108.6463889,"30.8025,-108.6463889"
ESCALON,26.75166667,-104.3402778,"26.75166667,-104.3402778"
SANTA MARIA (LOPEZ),27.02222222,-105.0102778,"27.02222222,-105.0102778"
AÑO DE HIDALGO (EL CUATROCIENTOS),29.38777778,-108.0986111,"29.38777778,-108.0986111"
PRESON DE GOLONDRINAS,29.17277778,-108.0297222,"29.17277778,-108.0297222"
EL LARGO,29.68777778,-108.2725,"29.68777778,-108.2725"
OCOVIACHI,27.64305556,-108.0625,"27.64305556,-108.0625"
SANTA ROSALIA (LA MAROMA),26.68166667,-105.4563889,"26.68166667,-105.4563889"
MORELOS (MORELOS),26.67083333,-107.6775,"26.67083333,-107.6775"
SANTA ANA (MORELOS),26.765,-107.6208333,"26.765,-107.6208333"
CIENEGA PRIETA,26.41916667,-107.6175,"26.41916667,-107.6175"
LAJITAS DE PALMIRA,26.49138889,-107.8575,"26.49138889,-107.8575"
HUMARIZA,27.26166667,-106.7677778,"27.26166667,-106.7677778"
EL HUIZACHE,22.925,-100.4588889,"22.925,-100.4588889"
RANCHO MESA LOS LEALES,26.37722222,-107.7727778,"26.37722222,-107.7727778"
MESA DEL FRIJOLAR,26.30916667,-107.9108333,"26.30916667,-107.9108333"
EL PILAR,28.10638889,-108.6105556,"28.10638889,-108.6105556"
TALAYOTES,28.22888889,-108.7522222,"28.22888889,-108.7522222"
CRUCES (NAMIQUIPA),29.43333333,-107.3880556,"29.43333333,-107.3880556"
SANTA CATALINA DE VILLELA (SANTA CATARINA),29.18277778,-106.9738889,"29.18277778,-106.9738889"
EL TERRERO (NONOAVA),27.45611111,-106.6988889,"27.45611111,-106.6988889"
MELCHOR OCAMPO (OCAMPO),28.19333333,-108.3669444,"28.19333333,-108.3669444"
BASASEACHI,28.20583333,-108.2086111,"28.20583333,-108.2086111"
JESUS DEL MONTE,28.31406611,-108.3991267,"28.31406611,-108.3991267"
EL SAUCILLO,28.07666667,-108.3680556,"28.07666667,-108.3680556"
HUAJUMAR (SAN ISIDRO HUAJUMAR),28.18861111,-108.2827778,"28.18861111,-108.2827778"
AGUA CALIENTE (OCAMPO),28.02472222,-108.3905556,"28.02472222,-108.3905556"
BASOGACHI,28.01388889,-107.8908333,"28.01388889,-107.8908333"
SAN ANTONIO DEL BRAVO,30.14111111,-104.7016667,"30.14111111,-104.7016667"
VALLE DEL ROSARIO,27.31916667,-106.2958333,"27.31916667,-106.2958333"
JUAN MENDOZA,27.13638889,-106.3130556,"27.13638889,-106.3130556"
SAN JAVIER,27.20944444,-106.3533333,"27.20944444,-106.3533333"
TEPORACHI,27.83944444,-106.7888889,"27.83944444,-106.7888889"
YEPACHI,28.42194444,-108.3775,"28.42194444,-108.3775"
YEPOMERA,29.05361111,-107.8544444,"29.05361111,-107.8544444"
EL METATE,27.26659,-108.0893619,"27.26659,-108.0893619"
EL TASCATE,27.48861111,-107.8880556,"27.48861111,-107.8880556"
GUAGUEYVO,27.38444444,-107.7952778,"27.38444444,-107.7952778"
BACAGOMACHI,27.17659111,-108.2021383,"27.17659111,-108.2021383"
SEGORACHI,27.20909111,-108.1135269,"27.20909111,-108.1135269"
ARECHUYVO,27.87583333,-108.5525,"27.87583333,-108.5525"
JICAMORACHI,27.91388889,-108.3086111,"27.91388889,-108.3086111"
EL REFUGIO,25.43194444,-103.1725,"25.43194444,-103.1725"
SANTA RITA (ARTEAGA),25.25111111,-100.5013889,"25.25111111,-100.5013889"
CONGREGACION BAJAN,26.5383425,-101.2517378,"26.5383425,-101.2517378"
FRANCISCO I. MADERO (CHAVEZ) HIDALGO,25.81694444,-103.285,"25.81694444,-103.285"
SANTA MONICA,28.20277778,-100.6272222,"28.20277778,-100.6272222"
CRISTALES,29.07888889,-101.0105556,"29.07888889,-101.0105556"
PURISIMA,29.18555556,-100.7952778,"29.18555556,-100.7952778"
DON MARTIN,27.5225,-100.6172222,"27.5225,-100.6172222"
SAN ANTONIO DEL COYOTE,25.69444444,-103.2855556,"25.69444444,-103.2855556"
GRANADA,25.64194444,-103.2669444,"25.64194444,-103.2669444"
GUADALUPE VICTORIA (MATAMOROS),25.74805556,-103.2266667,"25.74805556,-103.2266667"
PURISIMA,25.67916667,-103.3211111,"25.67916667,-103.3211111"
MORELOS CUARTERONES,28.01027778,-101.7088889,"28.01027778,-101.7088889"
ALAMOS DE MARQUEZ,28.77242222,-103.4421214,"28.77242222,-103.4421214"
SANTA ELENA UNO (SANTA ELENA),27.85300917,-102.9790272,"27.85300917,-102.9790272"
TORTUGAS (TORTUGA LA),25.86055556,-101.2758333,"25.86055556,-101.2758333"
SAN ANTONIO DE LAS HIGUERAS,27.3725,-101.7302778,"27.3725,-101.7302778"
CONCORDIA (LA ROSITA),25.77638889,-103.115,"25.77638889,-103.115"
LA FE,25.84611111,-103.2005556,"25.84611111,-103.2005556"
EL NILO,25.73305556,-102.9441667,"25.73305556,-102.9441667"
SAN MIGUEL (SAN PEDRO),25.69805556,-102.9502778,"25.69805556,-102.9502778"
SAN ISIDRO (PARRAS),25.54688528,-102.4444297,"25.54688528,-102.4444297"
VEINTIOCHO DE AGOSTO,25.64416667,-102.1119444,"25.64416667,-102.1119444"
EL MORAL,28.89055556,-100.6275,"28.89055556,-100.6275"
SAN ANTONIO DE ENCINAS,25.64836167,-101.1250431,"25.64836167,-101.1250431"
OJO CALIENTE DE LOS RAMOS (OJO,25.62083333,-100.8375,"25.62083333,-100.8375"
REATA LA,26.12666667,-101.0752778,"26.12666667,-101.0752778"
NUEVO MUNDO,25.94805556,-103.1883333,"25.94805556,-103.1883333"
PROVIDENCIA (SIERRA MOJADA),27.08496389,-103.4992939,"27.08496389,-103.4992939"
BOQUILLA DE LAS PERLAS,25.33,-103.2883333,"25.33,-103.2883333"
BUENAVISTA (VIESCA),25.42277778,-103.1019444,"25.42277778,-103.1019444"
EL REMOLINO (ZARAGOZA),28.75666667,-101.0816667,"28.75666667,-101.0816667"
BENJAMIN ARANDA (SAN RAFAEL),24.32055556,-104.7686111,"24.32055556,-104.7686111"
SAN JOSE DE CARRANZA,27.83777778,-103.5611111,"27.83777778,-103.5611111"
BARREAL DE GUADALUPE,25.00055556,-103.2458333,"25.00055556,-103.2458333"
LA PAZ,25.59444444,-103.3575,"25.59444444,-103.3575"
SANTA FE (TORREON),25.56583333,-103.3327778,"25.56583333,-103.3327778"
VIESCA,25.3425,-102.8066667,"25.3425,-102.8066667"
GABINO VAZQUEZ (SAN LUIS),25.48305556,-103.0641667,"25.48305556,-103.0641667"
GILITA,25.3925,-103.2002778,"25.3925,-103.2002778"
EL ESFUERZO SECTOR OCHO (EL PUERTO),25.29111111,-103.2369444,"25.29111111,-103.2369444"
LA LUZ (VILLA UNION),28.15944444,-100.7458333,"28.15944444,-100.7458333"
DONATO GUERRA,24.615,-104.6386111,"24.615,-104.6386111"
JOSE CRUZ GALVEZ (CAÑAS),24.76305556,-104.7627778,"24.76305556,-104.7627778"
MAYMORITA,24.52277778,-105.1975,"24.52277778,-105.1975"
EL PROGRESO (LOS PINOS),24.6375,-104.8375,"24.6375,-104.8375"
RICARDO FLORES MAGON (CANATLAN),24.46138889,-104.5302778,"24.46138889,-104.5302778"
LA SOLEDAD (CANATLAN),24.76055556,-104.9288889,"24.76055556,-104.9288889"
LA YERBABUENA (CANELAS),25.1175,-106.5369444,"25.1175,-106.5369444"
VIZCAINO,25.08888889,-104.7752778,"25.08888889,-104.7752778"
LAS AMERICAS,25.13694444,-104.9861111,"25.13694444,-104.9861111"
CUAUHTEMOC (CUENCAME),24.29,-103.8105556,"24.29,-103.8105556"
12 DE DICIEMBRE (SOMBRERETILLO),24.70833333,-103.5736111,"24.70833333,-103.5736111"
COLONIA ORIENTE,24.56279472,-103.8436358,"24.56279472,-103.8436358"
PASAJE,24.92722222,-103.8058333,"24.92722222,-103.8058333"
VENUSTIANO CARRANZA (ALTAMIRANO),16.66944444,-91.81722222,"16.66944444,-91.81722222"
EL  CIPRES,24.02277778,-104.6544444,"24.02277778,-104.6544444"
BANDERAS DEL AGUILA,23.92583333,-105.3397222,"23.92583333,-105.3397222"
EL ENCINAL,23.71777778,-105.0358333,"23.71777778,-105.0358333"
GENERAL CARLOS REAL,24.28277778,-104.4522222,"24.28277778,-104.4522222"
IGNACIO ZARAGOZA (DURANGO),24.37111111,-105.1486111,"24.37111111,-105.1486111"
JESUS GONZALEZ ORTEGA (PERICOS),24.17361111,-105.0538889,"24.17361111,-105.0538889"
JUAN B. CEBALLOS,24.20722222,-104.6661111,"24.20722222,-104.6661111"
SANTIAGO BAYACORA,23.89527778,-104.6147222,"23.89527778,-104.6147222"
VILLA MONTEMORELOS,23.99194444,-104.4805556,"23.99194444,-104.4805556"
JOSE ISABEL ROBLES,24.6425,-103.2933333,"24.6425,-103.2933333"
ORIENTE AGUANAVAL,24.90027778,-103.2361111,"24.90027778,-103.2361111"
SAN ANTONIO DE ZARAGOZA,25.18333333,-103.4147222,"25.18333333,-103.4147222"
SAN JOSE DE REYES,24.44055556,-103.1311111,"24.44055556,-103.1311111"
ARCINAS,25.77611111,-103.4072222,"25.77611111,-103.4072222"
ANTONIO AMARO (SAUCILLO),24.27555556,-104.0186111,"24.27555556,-104.0186111"
JOSE MARIA PINO SUAREZ (PROVIDENCIA),24.38861111,-104.0711111,"24.38861111,-104.0711111"
JOSE MARIA MORELOS (GUANACEVI),25.7225,-105.8086111,"25.7225,-105.8086111"
POSTA DE JIHUITES,25.73305556,-105.6011111,"25.73305556,-105.6011111"
LA ROSILLA,26.12916667,-106.3322222,"26.12916667,-106.3322222"
EL SALITRE,25.84885722,-106.0634417,"25.84885722,-106.0634417"
EL ZAPE,25.7725,-105.7886111,"25.7725,-105.7886111"
CENDRADILLAS,26.28333333,-106.0097222,"26.28333333,-106.0097222"
SAN FRANCISCO DE LOS CANO,25.83638889,-106.4830556,"25.83638889,-106.4830556"
POTRERO DEL LLANO (BOQUILLA DEL MUERTO),26.10277778,-105.2027778,"26.10277778,-105.2027778"
LA GUACAMAYITA,23.3325,-104.7122222,"23.3325,-104.7122222"
LAGUNA DEL CHIVO,23.14694444,-104.2627778,"23.14694444,-104.2627778"
BENJAMIN URIAS (SAN ANDRES),26.20722222,-105.0758333,"26.20722222,-105.0758333"
LA ZARCA,25.83444444,-104.7422222,"25.83444444,-104.7422222"
LLANO GRANDE (MEZQUITAL),22.86444444,-104.525,"22.86444444,-104.525"
SAN ANTONIO DE PADUA,22.550141,-104.503453,"22.550141,-104.503453"
CANOITAS (CANOAS DOS),22.61388889,-104.2969444,"22.61388889,-104.2969444"
SAN PEDRO DE XICORA,22.70361111,-104.6144444,"22.70361111,-104.6144444"
SANTIAGO TENERACA,23.08166,-104.757621,"23.08166,-104.757621"
EL TRONCON,23.49194444,-104.3883333,"23.49194444,-104.3883333"
XOCONOXTLE,23.22861111,-104.4466667,"23.22861111,-104.4466667"
SAN FRANCISCO DE OCOTAN,22.88166667,-104.7294444,"22.88166667,-104.7294444"
PLATANITOS,23.14864,-104.5613617,"23.14864,-104.5613617"
MURUATA,22.73305556,-104.4627778,"22.73305556,-104.4627778"
BANCOS DE CALITIQUE,22.44527778,-104.3947222,"22.44527778,-104.3947222"
LOS GAVILANES,22.77583333,-104.2558333,"22.77583333,-104.2558333"
LA GUAJOLOTA,22.94970778,-104.6336597,"22.94970778,-104.6336597"
BENITO JUAREZ (NAZAS),25.19333333,-104.2058333,"25.19333333,-104.2058333"
SANTA BARBARA,25.24388889,-104.1291667,"25.24388889,-104.1291667"
AMADO NERVO (NOMBRE DE DIOS),23.84361111,-104.1855556,"23.84361111,-104.1855556"
POBLADO DE PEÑA (PEÑA),25.56777778,-105.4436111,"25.56777778,-105.4436111"
POTRERO DE CAMPA,25.39444444,-105.3069444,"25.39444444,-105.3069444"
LA GAVIA (VILLA JUAREZ),22.24833333,-100.1761111,"22.24833333,-100.1761111"
EL NARANJAL (LA CEIBA),21.38805556,-98.93333333,"21.38805556,-98.93333333"
LA CONSTANCIA,23.91611111,-104.2658333,"23.91611111,-104.2658333"
EMILIO PORTES GIL (NOMBRE DE DIOS),23.89472222,-104.1402778,"23.89472222,-104.1402778"
SANTA CRUZ DE GUADALUPE,23.85166667,-104.1780556,"23.85166667,-104.1780556"
CANUTILLO,26.37888889,-105.3727778,"26.37888889,-105.3727778"
SANTA CRUZ DE TEPEHUANES (EL PUEBLO CHILERO),25.86194444,-105.3919444,"25.86194444,-105.3919444"
SAN PEDRO DE AZAFRANES,24.73611111,-106.1019444,"24.73611111,-106.1019444"
FRANCISCO JAVIER MINA (CORRALEJO),24.4925,-104.485,"24.4925,-104.485"
GENERAL IGNACIO ZARAGOZA,24.48583333,-104.3313889,"24.48583333,-104.3313889"
ADOLFO LOPEZ MATEOS (AGUINALDO),24.54416667,-104.4888889,"24.54416667,-104.4888889"
SAN ATENOGENES (LA VILLITA),23.99055556,-104.0172222,"23.99055556,-104.0172222"
LA OCHOA,24.01944444,-103.9216667,"24.01944444,-103.9216667"
EL BRILLANTE,23.77833333,-105.3602778,"23.77833333,-105.3602778"
SAN FRANCISCO DE LOS REMEDIOS (LAS PINTAS),26.36777778,-106.2005556,"26.36777778,-106.2005556"
GENERAL JESUS AGUSTIN CASTRO (INDEPENDENCIA),24.60611111,-103.9255556,"24.60611111,-103.9255556"
IGNACIO ZARAGOZA (SAN PABLO),24.91305556,-104.2172222,"24.91305556,-104.2172222"
NUEVO COVADONGA,24.90944444,-104.0780556,"24.90944444,-104.0780556"
AGUA CALIENTE (PUEBLO NUEVO),23.28916667,-105.3336111,"23.28916667,-105.3336111"
LAS CEBOLLAS (PUEBLO NUEVO),23.36777778,-104.845,"23.36777778,-104.845"
SAN FRANCISCO (PUEBLO NUEVO),23.11833333,-105.1019444,"23.11833333,-105.1019444"
LOS NARANJOS,23.36166667,-105.4927778,"23.36166667,-105.4927778"
LA PEÑA (PUEBLO NUEVO),23.56722222,-105.3719444,"23.56722222,-105.3719444"
SAN BERNARDINO DE MILPILLAS CHICO,23.3825,-105.1513889,"23.3825,-105.1513889"
LA CUMBRE,23.25055556,-105.2033333,"23.25055556,-105.2033333"
CORRALITOS,23.42416667,-105.3772222,"23.42416667,-105.3772222"
CHAVARRIA NUEVO,23.64833333,-105.5927778,"23.64833333,-105.5927778"
GAVILANES (SAN DIMAS),24.21972222,-105.7363889,"24.21972222,-105.7363889"
SAN LUIS DE VILLA CORONA,24.09527778,-105.6608333,"24.09527778,-105.6608333"
VERACRUZ DE LA SIERRA (EL PUEBLO),24.49722222,-105.5594444,"24.49722222,-105.5594444"
RIO DE MIRAVALLES,24.2975,-105.5522222,"24.2975,-105.5522222"
HUACHIMETAS DE ABAJO,24.44638139,-106.1119953,"24.44638139,-106.1119953"
SANTA CRUZ DEL OREGANO (EL OREGANO),24.46833333,-102.715,"24.46833333,-102.715"
VICENTE GUERRERO (SIETE ZACATES),24.54,-102.6288889,"24.54,-102.6288889"
SYMON (ESTACION SYMON),24.73280917,-102.6650183,"24.73280917,-102.6650183"
JOSE MARIA PATONI (MENORES DE ARRIBA),24.87833333,-104.4469444,"24.87833333,-104.4469444"
SAN ANTONIO DE LA LAGUNA,24.38055556,-103.4386111,"24.38055556,-103.4386111"
GARAME DE ABAJO,25.02916667,-105.4625,"25.02916667,-105.4625"
SOMBRA CARRIZAL,17.2975,-92.74666667,"17.2975,-92.74666667"
SAN JUAN DE LAS BOQUILLAS,25.375,-104.1675,"25.375,-104.1675"
EL CASCO,25.54777778,-104.5841667,"25.54777778,-104.5841667"
DIEZ DE ABRIL,24.55583333,-103.4802778,"24.55583333,-103.4802778"
SAN MARCOS (24 DE FEBRERO),24.29638889,-103.5430556,"24.29638889,-103.5430556"
LOS ALTARES,24.99888889,-105.8961111,"24.99888889,-105.8961111"
ATOTONILCO (SANTIAGO PAPASQUIARO),25.16472222,-105.4452778,"25.16472222,-105.4452778"
LOS HERRERA,25.16194444,-105.5030556,"25.16194444,-105.5030556"
LA PALESTINA,25.05361111,-105.1736111,"25.05361111,-105.1736111"
SAN JUAN DE CAMARONES,24.9275,-106.4119444,"24.9275,-106.4119444"
SAN MIGUEL DEL CANTIL,24.94442694,-106.2592403,"24.94442694,-106.2592403"
SAN JUAN DE MICHIS,23.43611111,-104.1344444,"23.43611111,-104.1344444"
SAN MIGUEL DE LA MICHILIA,23.59305556,-104.0633333,"23.59305556,-104.0633333"
AMACULI,24.61361111,-106.6013889,"24.61361111,-106.6013889"
CHACALA,24.81166667,-106.7386111,"24.81166667,-106.7386111"
LOS REMEDIOS (TAMAZULA),24.61916667,-106.4058333,"24.61916667,-106.4058333"
EL LIMON DE COPALQUIN,25.49222222,-107.1155556,"25.49222222,-107.1155556"
SAN JOSE DE VIBORILLAS,24.45804694,-106.2322756,"24.45804694,-106.2322756"
LAS JUNTAS DE TABAHUETO,25.275525,-107.0906558,"25.275525,-107.0906558"
AQUILES SERDAN (MAZATAN),14.94027778,-92.515,"14.94027778,-92.515"
SAN JOSE EL HUAYATE (BARRA DE SAN JOSE),14.91944444,-92.62333333,"14.91944444,-92.62333333"
METAPA DE DOMINGUEZ,14.83611111,-92.19111111,"14.83611111,-92.19111111"
CHIMHUCUM,16.89,-92.53138889,"16.89,-92.53138889"
NOMBRE DE DIOS,25.97721889,-103.6561936,"25.97721889,-103.6561936"
SAN FRANCISCO JAVIER,23.72638889,-104.0338889,"23.72638889,-104.0338889"
LA MAGDALENA (NUEVO IDEAL),24.88805556,-105.0738889,"24.88805556,-105.0738889"
BENITO JUAREZ (JUAREZ DE ABAJO),25.05944444,-105.1133333,"25.05944444,-105.1133333"
ESFUERZOS UNIDOS,24.82166667,-104.9902778,"24.82166667,-104.9902778"
LIBERTADORES DEL LLANO (SANTA SOFIA),24.81166667,-104.8877778,"24.81166667,-104.8877778"
SAN JOSE DE MORILLITOS (LA PERLA),24.9525,-104.8797222,"24.9525,-104.8797222"
EL PARAISO,16.930744,-99.00216,"16.930744,-99.00216"
GRANJENAL,22.39277778,-100.0663889,"22.39277778,-100.0663889"
SAN JOSE DE LAS CORRIENTES,23.77472222,-103.8469444,"23.77472222,-103.8469444"
NUEVA CUADRILLA,18.0475,-101.525,"18.0475,-101.525"
SAN MARCOS,17.15694444,-98.55583333,"17.15694444,-98.55583333"
COYUQUILLA NORTE,17.37833333,-101.0569444,"17.37833333,-101.0569444"
EL CEDRAL (LA UNION DE ISIDORO MONTES DE OCA),17.96439694,-101.6566231,"17.96439694,-101.6566231"
TRONCONES,17.78,-101.7222222,"17.78,-101.7222222"
FELICIANO,18.01722222,-101.9725,"18.01722222,-101.9725"
BARRANCA DE MARMOLEJO,18.04941167,-102.1577869,"18.04941167,-102.1577869"
XILOTLANCINGO,17.21666667,-98.94083333,"17.21666667,-98.94083333"
DOS RIOS,17.06060222,-98.3923775,"17.06060222,-98.3923775"
BUENA VISTA (ACATLAN),20.32583333,-98.45666667,"20.32583333,-98.45666667"
ENCINILLOS,20.19777778,-98.43388889,"20.19777778,-98.43388889"
HUEYOTLIPA,20.28166667,-98.42805556,"20.28166667,-98.42805556"
GALEANA DE ABAJO,18.26472222,-101.6194444,"18.26472222,-101.6194444"
JAZMIN CUAUHTEMOC,18.5375,-101.7180556,"18.5375,-101.7180556"
EL PLATANILLO,18.18944444,-101.7838889,"18.18944444,-101.7838889"
BARRIO VIEJO,17.70222222,-101.6194444,"17.70222222,-101.6194444"
PANTLA,17.73861111,-101.6363889,"17.73861111,-101.6363889"
FERMIN MACIEL,17.53944444,-101.2680556,"17.53944444,-101.2680556"
LOMA LARGA,20.27027778,-98.47944444,"20.27027778,-98.47944444"
LA BOVEDA,20.12333333,-98.12805556,"20.12333333,-98.12805556"
SAN FRANCISCO ATOTONILCO,20.19472222,-98.15166667,"20.19472222,-98.15166667"
SANTA ANA TZACUALA,20.19666667,-98.20305556,"20.19666667,-98.20305556"
TEPEPA (SANTIAGO TEPEPA),20.12583333,-98.17777778,"20.12583333,-98.17777778"
LAS MECAS,20.37666667,-98.90222222,"20.37666667,-98.90222222"
EJIDO MILPA VIEJA,20.32151944,-98.34640889,"20.32151944,-98.34640889"
LOS CUBES,20.34222222,-98.405,"20.34222222,-98.405"
SAN PEDRITO (AGUA BLANCA DE ITURBIDE),20.3819275,-98.33351806,"20.3819275,-98.33351806"
SANTIAGO TEZONTLALE,20.16138889,-99.09833333,"20.16138889,-99.09833333"
SAN ANTONIO TEZOQUIPAN,20.47388889,-99.46916667,"20.47388889,-99.46916667"
XOTHE,20.35138889,-99.43055556,"20.35138889,-99.43055556"
RANCHO NUEVO (ALMOLOYA),19.74694444,-98.27972222,"19.74694444,-98.27972222"
ALCANTARILLAS,19.79638889,-98.38305556,"19.79638889,-98.38305556"
TECOLOTITLA,21.00444444,-98.36277778,"21.00444444,-98.36277778"
EL PEDREGAL DE SAN JUAN,20.39583333,-98.62777778,"20.39583333,-98.62777778"
MONTECILLOS,20.28611111,-98.60944444,"20.28611111,-98.60944444"
SAUZ SABINO,20.35416667,-98.77277778,"20.35416667,-98.77277778"
CONEJOS,19.975,-99.24166667,"19.975,-99.24166667"
AHUACATLAN (CALNALI),20.89055556,-98.64416667,"20.89055556,-98.64416667"
ATEMPA,20.88333333,-98.49,"20.88333333,-98.49"
SAN ANDRES (SAN ANDRES CHICHAYOTLA),20.92666667,-98.56333333,"20.92666667,-98.56333333"
TULA,20.87694444,-98.54111111,"20.87694444,-98.54111111"
EMILIO HERNANDEZ LA FLORIDA,20.51333333,-98.99944444,"20.51333333,-98.99944444"
SAN LORENZO SAYULA,19.98888889,-98.2975,"19.98888889,-98.2975"
SANTA ELENA PALISECA,19.99555556,-98.24416667,"19.99555556,-98.24416667"
SANTA MARIA AMEALCO,20.23722222,-99.54916667,"20.23722222,-99.54916667"
EL COYOL,21.06527778,-98.99611111,"21.06527778,-98.99611111"
NEBLINAS,21.11583333,-98.92305556,"21.11583333,-98.92305556"
PALO SEMITA,21.10564861,-99.00167778,"21.10564861,-99.00167778"
TENANGO (CHAPULHUACAN),21.16472194,-98.87249972,"21.16472194,-98.87249972"
GUADALUPE VICTORIA (CUAUTEPEC DE HINOJOSA),20.0325,-98.265,"20.0325,-98.265"
TETLALPAN,21.17972222,-98.8575,"21.17972222,-98.8575"
TUNITITLAN,20.25083333,-99.24555556,"20.25083333,-99.24555556"
HUALULA (SAN JUAN HUALULA),20.70777778,-98.83527778,"20.70777778,-98.83527778"
SAN PEDRO GILO (GILO),20.74777778,-98.90388889,"20.74777778,-98.90388889"
XOCHIHUACAN,19.98916667,-98.70916667,"19.98916667,-98.70916667"
XOLOSTITLA DE MORELOS (XOLOSTITLA),20.06638889,-98.63861111,"20.06638889,-98.63861111"
TEPATEPEC,20.24555556,-99.08777778,"20.24555556,-99.08777778"
RIO SECO PUENTE DE DORIA,20.20805556,-98.49777778,"20.20805556,-98.49777778"
PEPEYOCA DE CABRERA,20.97777778,-98.22277778,"20.97777778,-98.22277778"
SANTO DOMINGO (HUAUTLA),21.09361111,-98.24361111,"21.09361111,-98.24361111"
TERRERO,21.02694444,-98.22333333,"21.02694444,-98.22333333"
CHIATIPAN,21.02166667,-98.52666667,"21.02166667,-98.52666667"
SAN JUAN,20.98888889,-98.50444444,"20.98888889,-98.50444444"
ACUAUTLA,20.489896,-98.033971,"20.489896,-98.033971"
JUNTAS CHICAS,20.57416667,-98.03083333,"20.57416667,-98.03083333"
SAN ANTONIO EL GRANDE (HUEHUETLA),20.45666667,-98.035,"20.45666667,-98.035"
SAN CLEMENTE,20.40472222,-98.1475,"20.40472222,-98.1475"
SAN ESTEBAN,20.54444444,-98.06027778,"20.54444444,-98.06027778"
SAN GREGORIO (HUEHUETLA),20.49689806,-98.01791556,"20.49689806,-98.01791556"
SAN LORENZO ACHIOTEPEC,20.59777778,-98.06888889,"20.59777778,-98.06888889"
SANTA URSULA,20.42083333,-98.105,"20.42083333,-98.105"
CHALAHUIYAPA,21.15027778,-98.36416667,"21.15027778,-98.36416667"
TLACOTLAPILCO,20.37666667,-99.22027778,"20.37666667,-99.22027778"
COACUILCO,21.10305556,-98.58583333,"21.10305556,-98.58583333"
HUMOTITLA COYUCO,21.15527778,-98.31472222,"21.15527778,-98.31472222"
IXCATLAN,21.08166667,-98.53444444,"21.08166667,-98.53444444"
MACUXTEPETLA,21.12305556,-98.47972222,"21.12305556,-98.47972222"
OXTOMAL,21.126111,-98.460556,"21.126111,-98.460556"
SANTA CRUZ (HUEJUTLA DE REYES),21.1975,-98.49444444,"21.1975,-98.49444444"
TEPEXITITLA,21.13138889,-98.45,"21.13138889,-98.45"
XIQUILA,21.07722222,-98.44305556,"21.07722222,-98.44305556"
BONDOJITO,20.44527778,-99.69694444,"20.44527778,-99.69694444"
LOS DURAZNOS,21.07194444,-99.13444444,"21.07194444,-99.13444444"
SAN NICOLAS (JACALA DE LEDEZMA),20.94638889,-99.16416667,"20.94638889,-99.16416667"
AMAXAC I,21.13627417,-98.50661389,"21.13627417,-98.50661389"
EL CHOTE (JALTOCAN),21.15305556,-98.50777778,"21.15305556,-98.50777778"
JUAREZ (JUAREZ HIDALGO),20.78222222,-98.82972222,"20.78222222,-98.82972222"
SAN LORENZO ITZTACOYOTLA,20.82194444,-98.81583333,"20.82194444,-98.81583333"
ACATEPEC (LOLOTLA),20.90805556,-98.71555556,"20.90805556,-98.71555556"
ZAHUASTIPAN,20.60944444,-98.56416667,"20.60944444,-98.56416667"
FONTEZUELAS,20.48861111,-98.87305556,"20.48861111,-98.87305556"
HUISTICOLA,20.53861111,-98.86166667,"20.53861111,-98.86166667"
SAN PABLO TETLAPAYAC,20.64,-98.92083333,"20.64,-98.92083333"
ZOQUIZOQUIPAN,20.64611111,-98.71777778,"20.64611111,-98.71777778"
HUITZNOPALA,20.92277778,-98.75194444,"20.92277778,-98.75194444"
IXTLAHUACO,20.88333333,-98.70305556,"20.88333333,-98.70305556"
XUCHIPANTLA,21.18472222,-98.72083333,"21.18472222,-98.72083333"
XUCHITLAN (LOLOTLA),21.06388889,-98.74388889,"21.06388889,-98.74388889"
ESTACION DE APULCO,20.28611111,-98.3475,"20.28611111,-98.3475"
AGUA BENDITA,20.42944444,-98.62694444,"20.42944444,-98.62694444"
CARPINTEROS,20.58694444,-98.53888889,"20.58694444,-98.53888889"
LOS ALAMOS,20.44046,-98.57426389,"20.44046,-98.57426389"
CERRO PRIETO (LA MISION),21.08987056,-99.07396361,"21.08987056,-99.07396361"
IXMOLINTLA,20.75972222,-98.73138889,"20.75972222,-98.73138889"
VELASCO,20.18083333,-98.64333333,"20.18083333,-98.64333333"
EL BRASILAR,21.32805556,-98.62555556,"21.32805556,-98.62555556"
IXCATLAN (SAN PEDRO),20.9280575,-98.81536778,"20.9280575,-98.81536778"
HUITZITZILINGO,21.17333333,-98.65638889,"21.17333333,-98.65638889"
LAS VIBORAS (SAN FELIPE ORIZATLAN),21.34861111,-98.545,"21.34861111,-98.545"
MONTE GRANDE (SAN FELIPE ORIZATLAN),21.33055556,-98.64527778,"21.33055556,-98.64527778"
PETLACATL COMUNAL,21.23305556,-98.60027778,"21.23305556,-98.60027778"
PIEDRA HINCADA,21.27277778,-98.55694444,"21.27277778,-98.55694444"
PACULA,21.05055556,-99.29638889,"21.05055556,-99.29638889"
SAN ANTONIO EL DESMONTE,20.12166667,-98.73583333,"20.12166667,-98.73583333"
CASAS VIEJAS (PISAFLORES),21.26555556,-98.99555556,"21.26555556,-98.99555556"
PUEBLO NUEVO (SAN BARTOLO TUTOTEPEC),20.42358806,-98.23801361,"20.42358806,-98.23801361"
SAN JUAN DE LAS FLORES,20.48027778,-98.2425,"20.48027778,-98.2425"
SAN MIGUEL (SAN BARTOLO TUTOTEPEC),20.44110111,-98.20276167,"20.44110111,-98.20276167"
SAN SEBASTIAN,20.57027778,-98.11694444,"20.57027778,-98.11694444"
TUTOTEPEC,20.42658306,-98.27381722,"20.42658306,-98.27381722"
NUEVO MONTE LIBANO,16.89916667,-91.62777778,"16.89916667,-91.62777778"
SAN JACINTO,16.81028,-91.68944,"16.81028,-91.68944"
EL LIMON,17.12111111,-91.7075,"17.12111111,-91.7075"
XUCHITLAN (SAN BARTOLO TUTOTEPEC),20.4525,-98.24833333,"20.4525,-98.24833333"
DEMACU,20.30527778,-99.02916667,"20.30527778,-99.02916667"
SAN SALVADOR,20.28388889,-99.01361111,"20.28388889,-99.01361111"
GANDHO,20.54638889,-99.68666667,"20.54638889,-99.68666667"
PAÑHE,20.52166667,-99.69666667,"20.52166667,-99.69666667"
EL DEQUEÑA,20.35305556,-98.23027778,"20.35305556,-98.23027778"
SAN JOSE DEL VALLE,20.38416667,-98.13805556,"20.38416667,-98.13805556"
SAN NICOLAS (TENANGO DE DORIA),20.32194444,-98.18861111,"20.32194444,-98.18861111"
SANTA MONICA (TENANGO DE DORIA),20.30888889,-98.21888889,"20.30888889,-98.21888889"
SAN BARTOLOME TEPETATES,19.74055556,-98.55861111,"19.74055556,-98.55861111"
TEPEAPULCO,19.785,-98.55305556,"19.785,-98.55305556"
ACOXCATLAN,20.97388889,-98.7775,"20.97388889,-98.7775"
SAN FRANCISCO IXMIQUILPAN,20.35224778,-98.25856556,"20.35224778,-98.25856556"
SAN FRANCISCO LA LAGUNA,20.36472222,-98.13055556,"20.36472222,-98.13055556"
ACOYOTLA,21.12527778,-98.77722222,"21.12527778,-98.77722222"
CHILIJAPA,21.01,-98.87027778,"21.01,-98.87027778"
CUATOLOL,21.11972222,-98.82611111,"21.11972222,-98.82611111"
SAN JUAN AHUEHUECO,21.03638889,-98.90722222,"21.03638889,-98.90722222"
SAN BUENAVENTURA,19.82166667,-99.32583333,"19.82166667,-99.32583333"
SANTIAGO TLAUTLA,19.96444444,-99.37222222,"19.96444444,-99.37222222"
SAYULA PUEBLO,20.19833333,-99.39666667,"20.19833333,-99.39666667"
OTLAMALACATLA,20.79567444,-98.54635417,"20.79567444,-98.54635417"
PEMUXCO,20.74511444,-98.56888917,"20.74511444,-98.56888917"
POLINTOTLA,20.76472222,-98.5075,"20.76472222,-98.5075"
TLACOLULA (TIANGUISTENGO),20.81055556,-98.49694444,"20.81055556,-98.49694444"
ZACATIPAN,20.8375,-98.51027778,"20.8375,-98.51027778"
ACAPA (SANTIAGO ACAPA),20.90130806,-98.90052444,"20.90130806,-98.90052444"
BUENAVISTA (TLAHUILTEPA),20.99083333,-98.97416667,"20.99083333,-98.97416667"
COYOCALA,20.9525,-98.89555556,"20.9525,-98.89555556"
XOCHIATIPAN,20.83388889,-98.28416667,"20.83388889,-98.28416667"
JALAMELCO,20.80666667,-98.69,"20.80666667,-98.69"
TEXCACO,20.83944444,-98.615,"20.83944444,-98.615"
TUZANCOAC,20.85666667,-98.55416667,"20.85666667,-98.55416667"
AGUACATITLA (YAHUALICA),20.86138889,-98.42805556,"20.86138889,-98.42805556"
TEXOLOC,20.91722222,-98.25388889,"20.91722222,-98.25388889"
SANTIAGO TEPEYAHUALCO,19.84722222,-98.67027778,"19.84722222,-98.67027778"
DURANGO,20.89555556,-99.23027778,"20.89555556,-99.23027778"
MORELOS (TRANCAS),20.79722222,-99.26805556,"20.79722222,-99.26805556"
VICENTE GUERRERO (EL TABLON),20.61361111,-99.36416667,"20.61361111,-99.36416667"
XAJHA,20.71555556,-99.49277778,"20.71555556,-99.49277778"
XHITA PRIMERO,20.62444444,-99.31944444,"20.62444444,-99.31944444"
XODHE,20.80777778,-99.34611111,"20.80777778,-99.34611111"
SAN NICOLAS AMEALCO,19.32472222,-99.87194444,"19.32472222,-99.87194444"
PALOS AMARILLOS,19.53944444,-99.91666667,"19.53944444,-99.91666667"
RINCON DE GUADALUPE,19.27305556,-99.99638889,"19.27305556,-99.99638889"
SAN JUAN (PRIMERA SECCION),19.24861111,-100.0302778,"19.24861111,-100.0302778"
SAN MIGUEL TENEXTEPEC,19.26361111,-100.03,"19.26361111,-100.03"
PUEBLO NUEVO (AMANALCO),19.29055556,-100.0291667,"19.29055556,-100.0291667"
SAN IGNACIO DE LOYOLA,19.813822,-99.84005,"19.813822,-99.84005"
SANTO DOMINGO SHOMEGE,19.84569359,-99.90453339,"19.84569359,-99.90453339"
SAN LUCAS TEXCALTITLAN,19.29888889,-100.1672222,"19.29888889,-100.1672222"
SANTA MARIA ENDARE,19.72555556,-99.81583333,"19.72555556,-99.81583333"
LA PEÑA (VILLA DE ALLENDE),19.32861111,-100.0402778,"19.32861111,-100.0402778"
TEMIMILCO,19.80916667,-97.09888889,"19.80916667,-97.09888889"
SAN JUAN COAJOMULCO,19.76353306,-99.97876806,"19.76353306,-99.97876806"
LOS REYES (JOCOTITLAN),19.68044306,-99.70222583,"19.68044306,-99.70222583"
TAPAXCO,19.79888889,-100.0461111,"19.79888889,-100.0461111"
SANTA ROSA DE GUADALUPE,19.80025917,-100.0958978,"19.80025917,-100.0958978"
SANTA RITA DE LA CUESTA,19.74833333,-100.0708333,"19.74833333,-100.0708333"
SAN ANTONIO ALBARRAN,19.11722222,-99.93611111,"19.11722222,-99.93611111"
SAN LUIS,19.36142056,-99.93646333,"19.36142056,-99.93646333"
SANTA ISABEL DEL MONTE,19.40805556,-99.96444444,"19.40805556,-99.96444444"
TURCIO,19.31861111,-99.94888889,"19.31861111,-99.94888889"
LOMA DE SAN JOSE,19.53527611,-100.0024978,"19.53527611,-100.0024978"
SAN DIEGO SUCHITEPEC,19.54722222,-100.0205556,"19.54722222,-100.0205556"
LA VENTA,19.69055556,-100.1516667,"19.69055556,-100.1516667"
SAN JOAQUIN LAMINILLAS,19.56027778,-100.1472222,"19.56027778,-100.1472222"
CUTZARO,19.45333333,-101.3355556,"19.45333333,-101.3355556"
AGUILILLA,18.73611111,-102.7875,"18.73611111,-102.7875"
DOS AGUAS,18.80611111,-102.925,"18.80611111,-102.925"
EL LIMONCITO,18.895,-102.7944444,"18.895,-102.7944444"
NARANJO DE CHILA,18.92138889,-102.6208333,"18.92138889,-102.6208333"
MESA DE LOBOS,18.73916667,-102.6608333,"18.73916667,-102.6608333"
LAZARO CARDENAS (LA PURISIMA),19.86972222,-101.0230556,"19.86972222,-101.0230556"
LEON CARDENAS (LA ARDILLA),19.88166667,-101.0730556,"19.88166667,-101.0730556"
AGUA CALIENTE (OJO DE AGUA),20.06694444,-101.7363889,"20.06694444,-101.7363889"
SANTIAGO CONGURIPO,20.18805556,-101.7058333,"20.18805556,-101.7058333"
SANTIAGO ACAHUATO (ACAHUATO),19.14944444,-102.3288889,"19.14944444,-102.3288889"
EL ALCALDE,18.95833333,-102.4586111,"18.95833333,-102.4586111"
LOS HOYOS (LA LOMA),19.03555556,-102.4427778,"19.03555556,-102.4427778"
EL PINO NUEVO,18.96027778,-102.3569444,"18.96027778,-102.3569444"
COIRE,18.39361111,-103.3172222,"18.39361111,-103.3172222"
SAN PEDRO NARANJESTIL,18.29944444,-103.1327778,"18.29944444,-103.1327778"
COLOLA,18.29722222,-103.4108333,"18.29722222,-103.4108333"
LA PLACITA DE MORELOS,18.53138889,-103.5866667,"18.53138889,-103.5866667"
MARUATA,18.27194444,-103.3552778,"18.27194444,-103.3552778"
LA TICLA,18.45472222,-103.555,"18.45472222,-103.555"
LA PLAYA DE GUADALUPE (LA PLAYA),19.005,-101.7513889,"19.005,-101.7513889"
LAS PUENTES (ARIO),19.04083333,-101.6530556,"19.04083333,-101.6530556"
URAPA,19.10416667,-101.6775,"19.10416667,-101.6775"
ZATZIO (TZATZIO),19.22166667,-101.6033333,"19.22166667,-101.6033333"
ESPINOSA,18.47583333,-102.2577778,"18.47583333,-102.2577778"
LA PAREJA,18.55777778,-102.1305556,"18.55777778,-102.1305556"
LAS CAÑAS,18.56583333,-101.9761111,"18.56583333,-101.9761111"
JAUJILLA,18.1475,-102.6425,"18.1475,-102.6425"
BRISEÑAS DE MATAMOROS,20.26861111,-102.5613889,"20.26861111,-102.5613889"
IBARRA,20.22805556,-102.6247222,"20.22805556,-102.6247222"
RAZO DEL ORGANO (VEINTIUNO DE MAYO),19.04083333,-102.5141667,"19.04083333,-102.5141667"
SANTA ANA AMATLAN (SANTA ANA),19.16083333,-102.5391667,"19.16083333,-102.5391667"
LA CARRERITA,18.99611111,-100.8855556,"18.99611111,-100.8855556"
PASO DE NUÑEZ (BUENAVISTA),18.89472222,-100.9466667,"18.89472222,-100.9466667"
RANCHITO,18.69666667,-103.6619444,"18.69666667,-103.6619444"
COLONIA VEINTE DE NOVIEMBRE (EL CAMALOTE),18.76722222,-103.6319444,"18.76722222,-103.6319444"
SALITRILLO,18.88111111,-103.1436111,"18.88111111,-103.1436111"
SAN JOSE DE LA MONTAÑA,18.43277778,-103.135,"18.43277778,-103.135"
TROJES,18.93055556,-103.3366667,"18.93055556,-103.3366667"
COENEO DE LA LIBERTAD,19.82111111,-101.5841667,"19.82111111,-101.5841667"
BELLAS FUENTES,19.82138889,-101.6794444,"19.82138889,-101.6794444"
COMANJA,19.74611111,-101.69,"19.74611111,-101.69"
MATUGEO (SAN MARCOS),19.73333333,-101.6155556,"19.73333333,-101.6155556"
EL CAPULIN (CONTEPEC),19.87666667,-100.1516667,"19.87666667,-100.1516667"
TEMASCALES (EL JACAL),20.05444444,-100.1697222,"20.05444444,-100.1697222"
LOS GALLINEROS,19.68055556,-102.6911111,"19.68055556,-102.6911111"
OCUMICHO,19.79694444,-102.2211111,"19.79694444,-102.2211111"
CHERAN  (BARRIO PARICUTIN),19.68666667,-101.9547222,"19.68666667,-101.9547222"
CHERAN (BARRIO PRIMERO),19.68666667,-101.9547222,"19.68666667,-101.9547222"
TANACO,19.7375,-102.0791667,"19.7375,-102.0791667"
ACACHUEN,19.844284,-102.092941,"19.844284,-102.092941"
CARAPAN DOS,19.86027778,-102.0372222,"19.86027778,-102.0372222"
CARAPAN,19.86027778,-102.0372222,"19.86027778,-102.0372222"
ICHAN,19.85805556,-102.0541667,"19.85805556,-102.0541667"
VILLA VICTORIA,18.7575,-103.3675,"18.7575,-103.3675"
SALITRE DE ESTOPILA,18.51166667,-103.3555556,"18.51166667,-103.3555556"
HIHUITLAN,18.87888889,-103.4013889,"18.87888889,-103.4013889"
AROCUTIN,19.55666667,-101.6958333,"19.55666667,-101.6958333"
ZINCIRO,19.67027778,-101.74,"19.67027778,-101.74"
LOMBARDIA,19.15805556,-102.0511111,"19.15805556,-102.0511111"
CAPIRE DE LOMBARDIA (EL CAPIRI),19.12305556,-102.0175,"19.12305556,-102.0175"
CHARAPENDO,19.26472222,-102.0663889,"19.26472222,-102.0663889"
EL HUACO,19.06722222,-102.0577778,"19.06722222,-102.0577778"
HUITZONTLA,18.63694444,-103.4041667,"18.63694444,-103.4041667"
TEHUANTEPEC,18.68666667,-103.2994444,"18.68666667,-103.2994444"
EL SALTO,19.85305556,-101.3997222,"19.85305556,-101.3997222"
CHANGUITIRO,20.08694444,-102.0530556,"20.08694444,-102.0530556"
COLESIO,20.14611111,-102.3011111,"20.14611111,-102.3011111"
CERRO AZUL,19.43027778,-100.6827778,"19.43027778,-100.6827778"
SAN BARTOLO CUITAREO (CUITAREO),19.65138889,-100.6011111,"19.65138889,-100.6011111"
HUAJUMBARO,19.68194444,-100.7416667,"19.68194444,-100.7416667"
PUCUATO,19.59916667,-100.7066667,"19.59916667,-100.7066667"
SAN MATIAS GRANDE (SAN MATIAS),19.71944444,-100.6052778,"19.71944444,-100.6052778"
SAN PEDRO JACUARO (LAS JOYAS),19.71388889,-100.6447222,"19.71388889,-100.6447222"
EL CHAUZ,18.89111111,-102.0397222,"18.89111111,-102.0397222"
PUEBLO VIEJO (LA HUACANA),18.87416667,-101.7097222,"18.87416667,-101.7097222"
NARANJO DE JORULLO,18.9325,-101.7355556,"18.9325,-101.7355556"
GUADALUPE DE OROPEO,18.81638889,-101.8094444,"18.81638889,-101.8094444"
CAPACHO,19.9625,-101.2283333,"19.9625,-101.2283333"
PUERTA DE JARIPITIRO (LA PUERTA),19.88722222,-101.5541667,"19.88722222,-101.5541667"
CAÑADA DE BUENAVISTA,18.84138889,-101.0733333,"18.84138889,-101.0733333"
SAN MIGUEL MONTECILLOS,18.615,-101.0794444,"18.615,-101.0794444"
EL OCUARO,18.79166667,-100.9213889,"18.79166667,-100.9213889"
SAN JERONIMO (HUETAMO),18.5325,-101.3269444,"18.5325,-101.3269444"
SANTA MARIA (HUETAMO),18.78638889,-101.0744444,"18.78638889,-101.0744444"
LAZARO CARDENAS,19.92305556,-101.7469444,"19.92305556,-101.7469444"
SANTIAGO CONGURIPO (SANTIAGO),18.51083333,-101.1066667,"18.51083333,-101.1066667"
TURITZIO,18.52694444,-100.9463889,"18.52694444,-100.9463889"
TZIRITZICUARO,18.49583333,-100.8594444,"18.49583333,-100.8594444"
BAZTAN DEL COBRE,18.74472222,-101.165,"18.74472222,-101.165"
HUIRAMBA,19.545,-101.4363889,"19.545,-101.4363889"
COLONIA DEL TRIUNFO (LA TEPACUA),19.81805556,-100.9733333,"19.81805556,-100.9733333"
SAN LUCAS PIO,19.79361111,-100.9247222,"19.79361111,-100.9247222"
IRIMBO,19.69916667,-100.4783333,"19.69916667,-100.4783333"
IXTLAN DE LOS HERVORES,20.17,-102.3983333,"20.17,-102.3983333"
LA PLAZA DEL LIMON,20.135,-102.4313889,"20.135,-102.4313889"
LA ESTANZUELA (IXTLAN),20.11833333,-102.3741667,"20.11833333,-102.3741667"
CAMPO HERMOSO,19.84333333,-100.405,"19.84333333,-100.405"
OJO DE RANA,20.04833333,-102.8905556,"20.04833333,-102.8905556"
CHUCUTITAN,18.02333333,-102.4647222,"18.02333333,-102.4647222"
EL REYNO,18.09,-102.2369444,"18.09,-102.2369444"
18 DE MAYO (COLONIA),19.70222222,-101.1855556,"19.70222222,-101.1855556"
ATECUARO,19.5825,-101.1886111,"19.5825,-101.1886111"
CAPULA (MORELIA),19.67361111,-101.3933333,"19.67361111,-101.3933333"
CUTO DE LA ESPERANZA,19.73083333,-101.3402778,"19.73083333,-101.3402778"
SAN NICOLAS OBISPO,19.65138889,-101.315,"19.65138889,-101.315"
SANTIAGO UNDAMEO,19.59472222,-101.2844444,"19.59472222,-101.2844444"
TIRIPETIO,19.54666667,-101.3483333,"19.54666667,-101.3483333"
JURUREMBA,20.01666667,-101.445,"20.01666667,-101.445"
NUEVO CORONDIRO (CORONDIRO),19.05277778,-102.125,"19.05277778,-102.125"
LA MOJONERA,19.70305556,-101.8333333,"19.70305556,-101.8333333"
TURICUARO,19.57083333,-101.9397222,"19.57083333,-101.9397222"
NOCUPETARO DE MORELOS,19.04361111,-101.1625,"19.04361111,-101.1625"
MELCHOR OCAMPO (SAN ANTONIO DE LAS HUERTAS),19.03527778,-101.2575,"19.03527778,-101.2575"
NUEVO SAN JUAN PARANGARICUTIRO,19.41666667,-102.1286111,"19.41666667,-102.1286111"
EL CALVARIO,19.21,-101.8311111,"19.21,-101.8311111"
LA IBERICA (LA GOTERA),19.16472222,-101.9161111,"19.16472222,-101.9161111"
TIPITARO,19.25722222,-101.8516667,"19.25722222,-101.8516667"
CAÑADA DE RAMIREZ,20.29888889,-101.9633333,"20.29888889,-101.9633333"
OCAMPO,19.58305556,-100.3388889,"19.58305556,-100.3388889"
LAGUNA VERDE (OCAMPO),19.62111111,-100.3983333,"19.62111111,-100.3983333"
ROSARIO,19.57611111,-100.2763889,"19.57611111,-100.2763889"
SAN GREGORIO (PAJACUARAN),20.19333333,-102.5483333,"20.19333333,-102.5483333"
TECOMATAN,20.11472222,-102.4961111,"20.11472222,-102.4961111"
CURIMEO,20.02055556,-101.6961111,"20.02055556,-101.6961111"
EL FRESNO DE LA REFORMA,19.95777778,-101.7641667,"19.95777778,-101.7641667"
ARANZA (ARANTZAN),19.66305556,-102.0225,"19.66305556,-102.0225"
PALMA SOLA,20.43972222,-97.55111111,"20.43972222,-97.55111111"
CHIQUIMITIO,19.79472222,-101.2513889,"19.79472222,-101.2513889"
TEKANTO,21.01055556,-89.10555556,"21.01055556,-89.10555556"
CHERAN ATZICUIRIN (CHERANASTICO),19.7,-102.0155556,"19.7,-102.0155556"
NURIO,19.655,-102.1305556,"19.655,-102.1305556"
SANTA MARIA URAPICHO (URAPICHO),19.68138889,-102.1119444,"19.68138889,-102.1119444"
AJUNO,19.5125,-101.7222222,"19.5125,-101.7222222"
CUANAJO,19.485,-101.5072222,"19.485,-101.5072222"
JANITZIO (ISLA JANITZIO),19.57361111,-101.6519444,"19.57361111,-101.6519444"
PRIMO TAPIA (SANTA ANA CHAPITIRO),19.52611111,-101.6525,"19.52611111,-101.6525"
ZURUMUTARO (TZURUMUTARO),19.5487487,-101.5823921,"19.5487487,-101.5823921"
GUANDARO,20.18888889,-101.8747222,"20.18888889,-101.8747222"
LA LUZ (PENJAMILLO),20.13555556,-101.8952778,"20.13555556,-101.8952778"
PATAMBARILLO,20.13305556,-101.8552778,"20.13305556,-101.8552778"
ZIQUITARO,20.06222222,-101.8888889,"20.06222222,-101.8888889"
SAN FRANCISCO PERIBAN,19.55638889,-102.3983333,"19.55638889,-102.3983333"
PAREDONES (LA PIEDAD),20.25777778,-102.0636111,"20.25777778,-102.0636111"
TICUITACO (TOCUITACO),20.27416667,-102.0069444,"20.27416667,-102.0069444"
LA EXCUSA,20.14222222,-101.4919444,"20.14222222,-101.4919444"
JANAMUATO,20.09972222,-101.5836111,"20.09972222,-101.5836111"
MANUEL VILLALONGIN,20.2375,-101.5266667,"20.2375,-101.5266667"
EL PUEBLITO (PURUANDIRO),20.04611111,-101.6222222,"20.04611111,-101.6222222"
SANTA CLARA PURUANDIRO,20.17916667,-101.4347222,"20.17916667,-101.4347222"
PUEBLO VIEJO (QUERENDARO),19.77583333,-100.8152778,"19.77583333,-100.8152778"
SAN JOSE DE LA CUMBRE,19.67583333,-100.8505556,"19.67583333,-100.8505556"
SAN ANDRES ZIRONDARO,19.66972222,-101.6322222,"19.66972222,-101.6322222"
SAN JERONIMO PURENCHECUARO,19.67916667,-101.6116667,"19.67916667,-101.6116667"
SANTA FE DE LA LAGUNA,19.67305556,-101.5561111,"19.67305556,-101.5561111"
J. JESUS DIAZ TZIRIO,19.76666667,-102.3972222,"19.76666667,-102.3972222"
PAMATACUARO,19.69111111,-102.3447222,"19.69111111,-102.3447222"
SAN ISIDRO (LOS REYES),19.73611111,-102.2969444,"19.73611111,-102.2969444"
ZICUICHO,19.66194444,-102.3336111,"19.66194444,-102.3336111"
ZACAN,19.56527778,-102.2869444,"19.56527778,-102.2869444"
ANGAO (ANGAO DE LOS HERRERA),18.67888889,-100.7858333,"18.67888889,-100.7858333"
EL CUAJILOTE,18.45722222,-100.6911111,"18.45722222,-100.6911111"
MONTE GRANDE (SAN LUCAS),18.49861111,-100.7783333,"18.49861111,-100.7783333"
SAN PEDRITO (SAN LUCAS),18.48305556,-100.8241667,"18.48305556,-100.8241667"
SAN PEDRO EL GRANDE (SAN PEDRO),18.52666667,-100.7955556,"18.52666667,-100.7955556"
EL CUERVO,20.0675,-101.0655556,"20.0675,-101.0655556"
BECANCHEN,19.87416667,-89.21694444,"19.87416667,-89.21694444"
SANTA CRUZ DE VILLA GOMEZ,18.37333333,-100.6305556,"18.37333333,-100.6305556"
VICENTE RIVA PALACIO (RIVA PALACIO),18.36722222,-100.6627778,"18.36722222,-100.6627778"
SANTA CLARA DEL COBRE,19.40527778,-101.6383333,"19.40527778,-101.6383333"
AGUA VERDE,19.41694444,-101.75,"19.41694444,-101.75"
ISTARO,19.32805556,-101.7536111,"19.32805556,-101.7536111"
OPOPEO,19.4125,-101.6052778,"19.4125,-101.6052778"
PASO DEL MUERTO,19.32472222,-101.6086111,"19.32472222,-101.6086111"
ZIRAHUEN,19.45388889,-101.7319444,"19.45388889,-101.7319444"
JOSE MARIA MORELOS (MANZANA GUADALUPE),19.78944444,-100.3675,"19.78944444,-100.3675"
SEGUNDA MANZANA DE CHINCUA,19.78166667,-100.2969444,"19.78166667,-100.2969444"
SAN JUAN HUERTA (HUERTA),19.79583333,-100.4061111,"19.79583333,-100.4061111"
TUPATARO,19.81333333,-100.3038889,"19.81333333,-100.3038889"
DOLORES (EX-HACIENDA DE DOLORES),19.24138889,-100.3455556,"19.24138889,-100.3455556"
RANCHO VIEJO (SUSUPUATO),19.24833333,-100.4175,"19.24833333,-100.4175"
EL TREMESINO,19.185,-100.4408333,"19.185,-100.4408333"
EL PEDREGOSO,19.30083333,-101.52,"19.30083333,-101.52"
TECARIO,19.23194444,-101.545,"19.23194444,-101.545"
PASO DE MORELOS (LA PAROTITA),19.19777778,-101.3308333,"19.19777778,-101.3308333"
AGUACATE DEL SUR (EL AGUACATE),19.25777778,-102.3794444,"19.25777778,-102.3794444"
APO,19.42611111,-102.41,"19.42611111,-102.41"
PAREO,19.33111111,-102.4505556,"19.33111111,-102.4505556"
URINGÜITIRO,19.28777778,-102.4191667,"19.28777778,-102.4191667"
LA CANTERA,19.86444444,-102.4094444,"19.86444444,-102.4094444"
